SL_NO,Ward_id,POI,Category,Zone,Priority,Latitude,Longitude,Elevation,Address,Junction_Z_W,Junction,CONDUIT_Z_W,Conduits,Snsr_ID_lc
1,6,B.N.U. Hospital (Dr Vinay Kumar Singh),1,1,1,26.70456,83.43483,77.1389,"Khorabar, Rambran Chaurha Ke Bgal Bin Toliya, Chaurha, Deoria ByPass Rd, Divya Nagar Vistar, Khorabar, Gorakhpur, Uttar Pradesh, 273010, India",K_J6295_Z1_W3,K_J6295,K_C5153_3_Z1_W6,K_C5153,GUFEW008
2,6,New Alok Hospital Gorakhpur,1,1,1,26.703953,83.433057,76.9786,"Khorabar, Gorakhpur, Uttar Pradesh, 273010, India",K_J6476_Z1_W3,K_J6476,K_C5903_Z1_W1,K_C5903,GUFEW008
3,6,Siktaur Mirjapur Road,1,1,1,26.7011,83.43504,72.4721,"Jungle Ramgarh Urf Chawri, Siktaur, Gorakhpur, Uttar Pradesh, 273016, India",K_J6294_Z1_W6,K_J6294,K_C5153_1_Z1_W6,K_C5153,SUFEW048
4,6,Kalindi Hospital & Trauma Center,1,1,1,26.71104,83.44554,77.9791,"Khorabar, Jangalsikari Urf Khoraba, Uttar Pradesh, 273010, India",K_J6292_Z1_W6,K_J6292,K_C5153_1_Z1_W6,K_C5153,SUFEW048
5,4,Rajendra Hospital,1,1,1,26.73316,83.42915,76.6012,"Gorakhpur - Deoria Rd, Near M.M.M Engineering College, Rapti Nagar Phase-4, Gorakhpur, Uttar Pradesh, 273008, India",K_J6282_Z1_W4,K_J6282,K_C6281_Z1_W4,K_C6281,GUFEW078
6,1,Shubham Hospital,1,1,1,26.72816,83.42392,77.9394,"Near, Mahadevapuram Colony, Kunraghat, Gorakhpur, Uttar Pradesh, 273010, India",K_J6300_Z1_W4,K_J6300,K_C5843_1_Z1_W4,K_C5843,GUFEW078
7,4,Shri Hospital,1,1,1,26.73065,83.43369,77.348,"B-925, Gorakhpur - Deoria Rd, Divya Nagar, Singhariya, Mahadevapuram Colony, Kunraghat, Gorakhpur, Uttar Pradesh, 273010, India",K_J6460_Z1_W4,K_J6460,K_C4862_2_Z1_W4,K_C4862,GUFEW078
8,4,Dwivedi Child Care,1,1,1,26.72926,83.43018,76.1029,"MMM Engendering College Near RSM School, Divya Nagar, Mahadevapuram Colony, Kunraghat, Gorakhpur, Uttar Pradesh, 273010, India",K_J6299_Z1_W4,K_J6299,K_C5835_5_Z1_W4,K_C5835,GUFEW078
9,4,Shri Hospital & Divyashri Diagnosist Center,1,1,1,26.72509,83.43359,78.3618,"Divya Nagar, Singhariya, Awas Vikas Colony, Khorabar, Gorakhpur, Uttar Pradesh, 273010, India",K_J6457_Z1_W4,K_J6457,K_C5153_11_Z1_W4,K_C5153,GUFEW008
10,1,MahaDev Hospital Divyanagar Colony,1,1,1,26.71818,83.42646,78.4414,"Near Sanskriti Public School, Divya Nagar, Mahadevapuram Colony, Ranidiah, Gorakhpur, Uttar Pradesh, 273010, India",K_J6447_Z1_W3,K_J6447,K_C5853_Z1_W4,K_C5853,GUFEW008
11,1,Adhira Hospital,1,1,1,26.72023,83.43065,77.6548,"Basant Vihar Gate Ranidiha-Siktaur Road, Divya Nagar, Mahadevapuram Colony, Rapti Nagar Phase-4, Gorakhpur, Uttar Pradesh, 273010, India",K_J6470_Z1_W3,K_J6470,K_C5901_1_Z1_W4,K_C5901,GUFEW008
12,3,PHC Khorabar,1,1,1,26.7168,83.4408,78.3896,"A-1, Gorakhpur - Deoria Rd, Divya Nagar, Mahadevapuram Colony, Khorabar, Gorakhpur, Uttar Pradesh, 273010, India",K_J2340_Z1_W3,K_J2340,K_C4868_1_Z1_W6,K_C4868,GUFEW008
13,3,Aasapar,1,1,1,26.710546,83.425142,75.2535,"Khorabar, Gorakhpur, Uttar Pradesh, 273010, India",K_J6476_Z1_W3,K_J6476,K_C5903_Z1_W1,K_C5903,GUFEW008
14,3,Jungal Sikari,1,1,1,26.716926,83.440596,78.1504,"Deoria Road, Gorakhpur, Uttar Pradesh, 273010, India",K_J2340_Z1_W3,K_J2340,K_C4868_1_Z1_W6,K_C4868,GUFEW008
15,1,UPHC Rampur Ramgarh,1,1,1,26.723113,83.424366,76.9629,"Veer Bahadur, Gorakhpur, Uttar Pradesh, 273010, India",K_J6452_Z1_W1,K_J6452,K_C5893_Z1_W1,K_C5893,GUFEW008
16,1,Aone Hospital,1,1,1,26.72487,83.42216,76.2457,"Unnamed Road, Awas Vikas Colony, 273010, Mahadevapuram Colony, Rapti Nagar Phase-4, Gorakhpur, Uttar Pradesh",K_J6452_Z1_W1,K_J6452,K_C5893_Z1_W1,K_C5893,GUFEW078
17,7,SH 100 Bed TB Sah Samanya Hospital,1,1,1,26.752514,83.431837,78.2615,"Late Chanmati Devi Marg, Konraghat, Gorakhpur, Uttar Pradesh, 273008, India",K_J216_Z1_W7,K_J216,K_C654_4_Z1_W7,K_C654,SUFEW050
18,7,Nandan Clinic,1,1,1,26.75186,83.43251,78.1537,"New Project Rd, Sainik Kunj, Nanda Nagar, Gorakhpur, Uttar Pradesh, 273008, India",K_J216_Z1_W7,K_J216,K_C654_4_Z1_W7,K_C654,SUFEW050
19,7,Prakash Clinic Dr.O.P.Singh,1,1,1,26.74898,83.43233,78.1339,"Prakash Puram, New Project Rd, Sainik Kunj, Nanda Nagar, Air Force Area, Uttar Pradesh, 273008, India",K_J216_Z1_W7,K_J216,K_C654_4_Z1_W7,K_C654,SUFEW050
20,7,Sarkari Hospital Nanda Nagar,1,1,1,26.74882,83.4379,78.0392,"Nanda Nagar, Gorakhpur, Uttar Pradesh, 273002, India",K_J216_Z1_W7,K_J216,K_C654_4_Z1_W7,K_C654,SUFEW050
21,7,Swastika Dental & Physio Clinic,1,1,1,26.74746,83.43058,77.9396,"Nanda Nagar, Gorakhpur, Uttar Pradesh, 273002, India",K_J216_Z1_W7,K_J216,K_C654_4_Z1_W7,K_C654,SUFEW047
22,25,All India Institute Of Medical Sciences,1,1,1,26.74645,83.41996,77.4426,"Kunraghat, Gorakhpur, Uttar Pradesh, 273008, India",K_J6346_Z1_W25,K_J6346,K_C1675_6_Z1_W7,K_C1675,SUFEW023
23,25,Gorakhpur AIIMS OPD,1,1,1,26.74643,83.41996,77.2961,"506, Gorakhpur - Deoria Rd, MahaDev Jharkhandi, Awas Vikas Colony, Kunraghat, Gorakhpur, Uttar Pradesh, 273008, India",K_J6346_Z1_W25,K_J6346,K_C1675_6_Z1_W7,K_C1675,SUFEW023
24,25,AIIMS Gorakhpur,1,1,1,26.74581,83.42091,77.6325,"Kunraghat, Gorakhpur, Uttar Pradesh, 273008, India",K_J6346_Z1_W25,K_J6346,K_C1675_3_Z1_W7,K_C1675,SUFEW023
25,25,Patanjali Chikitsalay,1,1,1,26.73994,83.41762,76.9527,"House No 500, MahaDev Jharkhandi, Awas Vikas Colony, Kunraghat, Gorakhpur, Uttar Pradesh, 273008, India",K_J6278_Z1_W25,K_J6278,K_C4850_Z1_W25,K_C4850,SUFEW023
26,25,Gorakhpur AIIMS Hospital,1,1,1,26.74561,83.41991,75.1549,"Gorakhpur-Kushinagar Rd, Kunraghat, Gorakhpur, Uttar Pradesh, 273008, India",K_J6317_Z1_W25,K_J6317,K_C4852_3_Z1_W7,K_C4852,SUFEW023
27,18,12 Air Force Hospital,1,1,1,26.75901,83.42087,77.7751,"Air Force Colony, Nanda Nagar, Gorakhpur, Uttar Pradesh, 273014, India",M5_J719_Z1_W18,M5_J719,C196_Z1_W18,C196_Z1,SUFEW022
28,18,LifeCare Hospital,1,1,1,26.751085,83.418617,78.7726,"Bichhiya, Gorakhpur, Uttar Pradesh, 273008, India",K_J2356_Z1_W25,K_J2356,K_C1674_1_Z1_W7,K_C1674,SUFEW023
29,18,Eye Department Air Force Hospital,1,1,1,26.75996,83.41971,77.3322,"Air Force Colony, Nanda Nagar, Gorakhpur, Uttar Pradesh, 273014, India",M5_J719_Z1_W18,M5_J719,C196_Z1_W18,C196_Z1,SUFEW022
30,22,UPHC Bichhiya,1,1,1,26.76736,83.4028,75.3641,"Unnamed Road, Maitripuram, Gorakhpur, Uttar Pradesh, 273014, India",M5_J321_Z1_W22,M5_J321,C194_Z1_W23,C194_Z1,SUFEW022
31,23,New Tirupati Hospital,1,1,1,26.754416,83.40283,77.1812,"Service Road 3, Mohaddipur, Gorakhpur, Uttar Pradesh, 273009, India",A_J5346_Z1_W67,A_J5346,A_C4841_Z1_W67,A_C4841,SUFEW022
32,23,Children HealthCare And Maternity Clinic,1,1,1,26.75868,83.40505,76.4877,"Hanuman Mandir Rd, Mishra Compound, Betiahata, Gorakhpur, Uttar Pradesh, 273014, India",M5_J499_Z1_W23,M5_J499,C93_1_Z1_W23,C93_1,SUFEW022
33,23,Apollo Lucknow Cancer Specialist(radiationtherapy) In Gorakhpur,1,1,1,26.75886,83.40458,76.2473,"Apollo Clinic, 142-A, Hanuman Mandir Rd, Betiahata, Gorakhpur, Uttar Pradesh, 273014, India",M5_J499_Z1_W23,M5_J499,C93_1_Z1_W23,C93_1,SUFEW022
34,23,Apollo Clinic,1,1,1,26.75887,83.40452,76.2273,"142-A, Hanuman Mandir Rd, Betiahata, Gorakhpur, Uttar Pradesh, 273014, India",M5_J499_Z1_W23,M5_J499,C93_1_Z1_W23,C93_1,SUFEW022
35,72,Rainbow Hospital Dr Preeti Dr Santosh,1,1,1,26.7481,83.39414,76.0849,"Unnamed Road, Kawwa Bagh Colony, Gorakhpur, Uttar Pradesh, 273009, India",A_J3746_Z1_W67,A_J3746,A_C3071_2_Z3_W72,A_C3071,GUFEW012
36,67,Aone Hospital,1,1,1,26.75162,83.40163,78.0412,"Mohaddipur, Gorakhpur, Uttar Pradesh, 273009, India",A_J5433_Z1_W67,A_J5433,A_C4948_Z1_W67,A_C4948,SUFEW022
37,67,Riaz Hospital,1,1,1,26.75082,83.40164,77.5447,"Kasya Rd, Mohaddipur, Gorakhpur, Uttar Pradesh, 273009, India",A_J5433_Z1_W67,A_J5433,A_C4948_Z1_W67,A_C4948,SUFEW022
38,67,Savitri Neuro Evam Maternity Center,1,1,1,26.75402,83.39909,78.5022,"Charfatak, Mohaddipur, Gorakhpur, Uttar Pradesh, 273009, India",A_J5357_Z1_W67,A_J5357,A_C4853_Z1_W67,A_C4853,SUFEW022
39,67,Timoneer Hospital,1,1,1,26.74936,83.39991,76.9214,"House No. 102/103, Opp. Shree Talkies, Mohaddipur, Gorakhpur, Uttar Pradesh, 273009, India",A_J5241_Z1_W67,A_J5241,A_C4729_Z1_W67,A_C4729,SUFEW022
40,45,Accidental Care Hospital & Maternity Centre,1,1,1,26.75719,83.38718,77.9324,"Railway Station Rd, Irrigation Colony, Kawwa Bagh Colony, Gorakhpur, Uttar Pradesh, 273009, India",A_J4963_Z1_W45,A_J4963,A_C4460_Z3_W72,A_C4460,GUFEW080
41,45,Shahi Global Hospital,1,1,1,26.7565,83.38867,77.1639,"Irrigation Colony, Kawwa Bagh Colony, Gorakhpur, Uttar Pradesh, 273009, India",A_J4967_Z1_W45,A_J4967,A_C4477_Z3_W72,A_C4477,GUFEW080
42,45,Lalit Narayan Mishra Railway Hospital,1,1,1,26.75805,83.38384,77.9897,"Kawwa Bagh Colony, Gorakhpur, Uttar Pradesh, 273009, India",A­_J4971_Z1_W45,A­_J4971,A_C4460_Z3_W72,A_C4460,GUFEW080
43,45,New Gorakhpur Medicity Hospital,1,1,1,26.759308,83.382623,78.9991,"Railway Station Road, Railway Colony, Gorakhpur, Uttar Pradesh, 273012, India",A­_J4968_Z1_W45,A­_J4968,A_C4465_Z3_W72,A_C4465,GUFEW080
44,45,PHC Mirzapur Lalpur Tikar,1,3,1,26.758909,83.380107,78.9201,"Railway Station Road, Civil Lines, Gorakhpur, Uttar Pradesh, 273001, India",A­_J6223_Z3_W48,A­_J6223,A­_C4458_7_Z3_W79,A­_C4458,GUFEW080
45,22,Bombay Hospital And Trauma Centre,1,1,1,26.768076,83.40037,73.6212,"Bichhiya, Gorakhpur, Uttar Pradesh, 273014, India",M5_J321_Z1_W22,M5_J321,C194_Z1_W23,C194_Z1,SUFEW021
46,22,Ansh Hospital,1,1,1,26.77366,83.39682,77.4299,"UM Bike Showroom Jail By Pass Road In Front, Shahpur, Gorakhpur, Uttar Pradesh, 273014, India",J475_Z1_W22,J475_Z1,C270_Z1_W17,C270_Z1,SUFEW021
47,22,New Life Multi Speciality,1,1,1,26.77498,83.39879,78.118,"Jail ByPass Rd, Padri Bazar, Shahpur, Gorakhpur, Uttar Pradesh, 273014, India",J480_Z1_W22,J480_Z1,C269_Z1_W17,C269_Z1,SUFEW021
48,22,Abhigya Heart Care And Super Speciality Hospital Pvt Ltd,1,1,1,26.770379,83.394689,75.141,"Bichhiya, Gorakhpur, Uttar Pradesh, 273014, India",J913_Z5_W29,J913_Z5,C86_2_Z1_W22,C86_2,SUFEW021
49,39,Kalash Hospital,1,2,1,26.71488,83.4001,74.2892,"Unnamed Road, Budh Vihar Colony, Gorakhpur, Uttar Pradesh, 273010, India",T_J1812_Z2_W39,T_J1812,T_C3085_2_Z2_W39,T_C3085,SUFEW053
50,39,Kalash Chikitsalaya,1,2,1,26.7155,83.39868,73.8561,"D - 100, Budh Vihar Part B, MiG, Near Rampur, Hanuman Mandir, Taramandal Rd, Budh Vihar Colony, Gorakhpur, Uttar Pradesh, 273010, India",J367_Z2_W39,J367_Z2,T_C3085_2_Z2_W39,T_C3085,SUFEW053
51,39,Gaighat,1,2,1,26.706962,83.3994,73.7629,"Ramgarh, Gorakhpur, Uttar Pradesh, 273010, India",T_J4660_Z2_W39,T_J4660,T_C202_3_Z2_W39,T_C202,SUFEW053
52,39,Dr Atul Kumar Singh,1,2,1,26.71659,83.39703,73.6967,"Buddha Vihar, Part B, Budh Vihar Colony, Gorakhpur, Uttar Pradesh, 273010, India",J367_Z2_W39,J367_Z2,T_C3085_1_Z2_W39,T_C3085,SUFEW053
53,39,Aanchal Clinic,1,2,1,26.71717,83.39575,73.1527,"Bhagat Chauraha, Budh Vihar Colony, Gorakhpur, Uttar Pradesh, 273010, India",T_J4715_Z2_W39,T_J4715,T_C3085_1_Z2_W39,T_C3085,GUFEW003
54,37,Shanvi Hospital,1,2,1,26.71921,83.3939,74.0565,"Taramandal Rd, Rail Vihar Colony Phase 3rd, Phase 3rd, Gorakhpur, Uttar Pradesh, 273010, India",T_J4571_Z2_W37,T_J4571,T_C204_10_Z1_W19,T_C204,SUFEW019
55,37,Titanium Hospital,1,2,1,26.72616,83.38604,74.2179,"A4, Buddh Vihar Part A, Taramandal, Gorakhpur, Uttar Pradesh, 273010, India",T_J2016_Z2_W37,T_J2016,T_C4002_Z2_W37,T_C4002,SUFEW051
56,37,Medwin Hospital,1,2,1,26.721348,83.389556,74.0659,"Rampur Road, Rani Bagh, Gorakhpur, Uttar Pradesh, 273010, India",T_J6262_Z2_W37,T_J6262,T_C3094_Z2_W39,T_C3094,SUFEW019
57,37,Medwin Hospital,1,2,1,26.72443,83.387821,73.8174,"Ramgarh, Gorakhpur, Uttar Pradesh, 273010, India",T_J4427_Z2_W37,T_J4427,T_C3094_Z2_W39,T_C3094,SUFEW051
58,37,Bhawna Hospital,1,2,1,26.725218,83.387378,74.4104,"Ramgarh, Gorakhpur, Uttar Pradesh, 273010, India",T_J4427_Z2_W37,T_J4427,T_C204_5_Z2_W37,T_C204,SUFEW051
59,11,Belwar,1,2,1,26.714398,83.372789,74.5674,"Rani Bagh, Gorakhpur, Uttar Pradesh, 273010, India",T_J6220_Z2_W11,T_J6220,T_C1061_1_Z2_W11,T_C1061,SUFEW056
60,75,Aarogya MediCare And Pharmacy,1,2,1,26.72004,83.37083,74.081,"In Front Of Kamla Marriage Hall, Near Gorakhpur Public School Bargo Road, Ranibagh, New Shivpuri, Pathara, Mahuesugharpur, Shakti Nagar Colony, Gorakhpur, Uttar Pradesh, 273010, India",T_J6251_Z2_W75,T_J6251,T_C3810_5_Z2_W51,T_C3810,GUFEW036
61,11,Kajak Pur,1,2,1,26.718545,83.378498,75.9567,"Ramgarh, Gorakhpur, Uttar Pradesh, 273010, India",T_J1664_Z2_W11,T_J1664,T_C939_4_Z2_W37,T_C939,SUFEW056
62,11,SC Kjakpur,1,2,1,26.718503,83.378438,75.9572,"Ramgarh, Gorakhpur, Uttar Pradesh, 273010, India",T_J1664_Z2_W11,T_J1664,T_C939_4_Z2_W37,T_C939,SUFEW056
63,11,Health And Wellness Center Bargo,1,2,1,26.71435,83.37273,74.5374,"Badgon, Gorakhpur, Uttar Pradesh, 273010, India",T_J6220_Z2_W11,T_J6220,T_C1061_1_Z2_W11,T_C1061,SUFEW056
64,51,SC Jharwa,1,2,1,26.711752,83.361299,75.6265,"Rani Bagh, Gorakhpur, Uttar Pradesh, 273010, India",J375_Z2_W51,J375_Z2,C295_4_Z2_W51,C295_4,GUFEW046
65,51,Kamla Hospital,1,2,1,26.72104,83.36054,74.163,"Rajiv Nagar Colony, Chakra Soim, Uttar Pradesh, 273010, India",J55_Z2_W51,J55_Z2,C264_Z2_W51,C264_Z2,SUFEW043
66,51,Gond Palace,1,2,1,26.7245,83.36504,74.6817,"Rajiv Nagar Colony, Kathawatia Urf Kathaur, Uttar Pradesh, 273010, India",T_J6237_Z2_W75,T_J6237,T_C212_2_Z2_W75,T_C212,SUFEW016
67,24,SC Nausad,1,2,1,26.731354,83.333742,75.2594,"Uttar Pradesh, 273016, India",N_J6425_Z2_W24,N_J6425,N_C5151_6_Z2_W24,N_C5151,SUFEW032
68,24,Dr M Baranwal.Eye & Nutrition Clinic.,1,2,1,26.72567,83.33414,75.8487,"Dr M Baranwal.Eye & Nutrition Clinic, Nausad-Varanasi Marg, Gorakhpur, Uttar Pradesh, 273016, India",N_J6428_Z2_W24,N_J6428,N_C4868_7_Z2_W24,N_C4868,SUFEW041
69,24,Ramachandra Hospital,1,2,1,26.73181,83.33902,78.7191,"Lalpur Tikar, Uttar Pradesh, 273016, India",N_J6319_Z2_W24,N_J6319,N_C3070_8_Z2_W24,N_C3070,SUFEW041
70,24,"Dirghayu Chikitsalaya Naturopathy Yoga, Holistic Medicine & Spinal Care",1,2,1,26.72425,83.33261,74.9965,"Naushad Banaras Road, Bisede Aadarsh Janta Inter College, Bhilora Buzurg, Uttar Pradesh, 273016, India",N_J6419_Z2_W24,N_J6419,N_C4861_1_Z2_W24,N_C4861,SUFEW041
71,24,"Primary Health Center, Nausad",1,2,1,26.73271,83.33315,74.9007,"Gorakhpur, Uttar Pradesh, 273016, India",N_J6424_Z2_W24,N_J6424,N_C5151_6_Z2_W24,N_C5151,SUFEW032
72,69,New Jeevan Hospital Gorakhpur,1,2,1,26.73242,83.35864,78.3313,"Maheva Bandha Road, Transport Nagar, Gorakhpur, Uttar Pradesh, 273016, India",T_J3786_Z2_W38,T_J3786,T_C3120_Z2_W38,T_C3120,SUFEW042
73,57,Amrawati Hospital,1,2,1,26.73715,83.36276,74.9855,"Betiahata Rd, Near Prem Chand Park, Betiahata, Gorakhpur, Uttar Pradesh, 273001, India",A_J3718_Z2_W32,A_J3718,A_C3207_Z2_W26,A_C3207,GUFEW007
74,38,Poddar Clinic & Maternity Centre,1,2,1,26.73474,83.36151,76.0971,"In Front Bharat Petrol Pump Street, Transport Nagar, Gorakhpur, Uttar Pradesh, 273001, India",T_J1291_Z2_W38,T_J1291,T_C55_1_Z2_W38,T_C55,SUFEW010
75,38,Pakhi Hospital,1,2,1,26.73651,83.36123,75.4271,"Prem Chand Park Rd, Beside Mittal Eye Hospital, Transport Nagar, Gorakhpur, Uttar Pradesh, 273001, India",A_J3418_Z2_W32,A_J3418,A_C3048_Z2_W26,A_C3048,SUFEW042
76,38,Sarvang Hospital,1,2,1,26.73657,83.36124,75.3773,"Varanasi - Gorakhpur Hwy, Near Premchand Park, Betiahata, Gorakhpur, Uttar Pradesh, 273001, India",A_J3418_Z2_W32,A_J3418,A_C3048_Z2_W26,A_C3048,SUFEW042
77,75,Surya Clinic Gorakhpur,1,2,1,26.72499,83.37322,74.9465,"Rustampur Rd, Shiva Ji Nagar, Mahuesugharpur, Shakti Nagar Colony, Gorakhpur, Uttar Pradesh, 273010, India",T_J4437_Z2_W75,T_J4437,T_C207_1_Z2_W75,T_C207,GUFEW036
78,70,Vardayini Hospital,1,2,1,26.73282,83.36902,74.9841,"Budh Vihar, Infront Of Commercial Petrol Pump, Tara Medical Road, Mahuesugharpur, Transport Nagar, Gorakhpur, Uttar Pradesh, 273010, India",T_J1467_Z2_W70,T_J1467,T_C859_Z2_W75,T_C859,SUFEW057
79,75,Grace Hospital,1,2,1,26.72618,83.37205,75.4131,"Bagaha Baba Mandir Road, Mahuesugharpur, Shakti Nagar Colony, Gorakhpur, Uttar Pradesh, 273010, India",T_J4366_Z2_W75,T_J4366,T_C3724_5_Z2_W75,T_C3724,GUFEW022
80,75,Sharda Clinic,1,2,1,26.72743,83.37698,74.1873,"Chilmapur Road, Azad Nagar, Gorakhpur, Uttar Pradesh, 273010, India",T_J1682_Z2_W70,T_J1682,T_C1048_Z2_W37,T_C1048,GUFEW022
81,26,Jagdish Hospital,1,2,1,26.73472,83.37124,75.0041,"Azad Chowk, Nahar Road, Rustampur, Mahuesugharpur, Azad Nagar, Gorakhpur, Uttar Pradesh, 273010, India",T_J1550_Z2_W70,T_J1550,T_C934_Z2_W70,T_C934,SUFEW057
82,56,Pace Heart Care Dr Atul Shahi,1,2,1,26.7372,83.37632,74.0733,"1, Deoria ByPass Rd, Buddh Vihar Part A, Taramandal, Gorakhpur, Uttar Pradesh, 273010, India",T_J378_Z2_W56,T_J378,T_C3089_1_Z2_W56,T_C3089,GUFEW041
83,26,Sarkari MediCare Center,1,2,1,26.73751,83.37237,74.6276,"209, Nahar Road, Daudpur, Gorakhpur, Uttar Pradesh, 273001, India",A_J3690_Z2_W26,A_J3690,A_C3015_Z2_W26,A_C3015,SUFEW024
84,26,Shahi Global Hospital,1,2,1,26.73819,83.37303,74.1888,"Buddh Vihar, Commercial, Taramandal, Gorakhpur, Uttar Pradesh, 273001, India",A_J3688_Z2_W26,A_J3688,A_C3011_Z2_W56,A_C3011,SUFEW024
85,56,Rachit Hospital,1,2,1,26.74061,83.3798,74.5738,"National Highway 28, Bansgaon Colony, Daudpur, Gorakhpur, Uttar Pradesh, 273001, India",T_J3703_Z2_W56,T_J3703,T_C3372_Z2_W56,T_C3372,GUFEW041
86,72,Gastro Liver Hospital,1,2,1,26.74453,83.38117,74.0141,"Padleygunj Road, Bansgaon Colony, Kalepur, Gorakhpur, Uttar Pradesh, 273001, India",A_J6244_Z2_W56,A_J6244,A_C343_2_Z3_W72,A_C343,GUFEW029
87,72,Rajbanshi Neuro And MultiSpeciality Hospital,1,3,1,26.74446,83.3836,76.7797,"Paidleganj, Gorakhpur, Uttar Pradesh, 273009, India",A_J6247_Z2_W56,A_J6247,A_C62_4_Z3_W72,A_C62,GUFEW029
88,72,Raj Eye Hospital & PG Institute Of Medical Sciences,1,2,1,26.74481,83.3787,76.1785,"Cantt Road Chatra Sangh Chauraha, Bansgaon Colony, Kalepur, Gorakhpur, Uttar Pradesh, 273001, India",A_J3754_Z2_W56,A_J3754,A_C65_6_Z3_W72,A_C65,GUFEW029
89,72,Pulse Hospital,1,2,1,26.74516,83.37968,74.6506,"Bansgaon Colony, Kalepur, Gorakhpur, Uttar Pradesh, 273001, India",A_M4_J91_Z2_W56,A_M4,A_C65_3_Z3_W72,A_C65,GUFEW029
90,79,Bachpan Child Clinic - Dr Kuldeep Singh,1,3,1,26.74938,83.37317,77.3297,"Near M.P Inter College, Hari Om Nagar, Civil Lines, Gorakhpur, Uttar Pradesh, 273001, India",A_J3650_Z3_W79,A_J3650,A_C2980_Z3_W79,A_C2980,GUFEW015
91,79,Buddha Hospital & Trauma Center,1,3,1,26.75435,83.3786,77.5324,"Park Rd, Opposite Of Bishmil Park, Civil Lines, Gorakhpur, Uttar Pradesh, 273001, India",A_J4027_Z3_W79,A_J4027,A_C3372_Z3_W79,A_C3372,GUFEW080
92,79,Shambhavi Hospital,1,3,1,26.7549,83.379,77.7084,"Park Rd, Civil Lines, Opposite To St Joesph's School, Golghar, Gorakhpur, Uttar Pradesh, 273001, India",A_J6217_Z3_W79,A_J6217,A_C3372_Z3_W79,A_C3372,GUFEW080
93,79,Garg Hospital,1,3,1,26.75241,83.3694,77.7947,"Gandhi Gali, GandhiNagar, Golghar, Gorakhpur, Uttar Pradesh, 273001, India",A_J3639_Z3_W79,A_J3639,A_C2963_1_Z3_W62,A_C2963,GUFEW039
94,79,New Uday Medical Centre,1,3,1,26.75246,83.36918,77.273,"Gandhi Gali, Vindyavasini Nagar, Gorakhpur, Uttar Pradesh, 273001, India",A_J3639_Z3_W79,A_J3639,A_C2963_1_Z3_W62,A_C2963,GUFEW039
95,63,Park Hospital,1,2,1,26.74098,83.36801,75.8776,"110-A, Betiahata Rd, Near Ramjash Rai Cloth Shop, Mishra Compound, Betiahata, Gorakhpur, Uttar Pradesh, 273001, India",A_J3789_Z2_W26,A_J3789,A_C3124_Z2_W26,A_C3124,SUFEW017
96,26,Aryan Hospital,1,2,1,26.73865,83.3734,74.9049,"Canal Road, Daudpur, Gorakhpur, Uttar Pradesh, 273001, India",A_J3682_Z2_W26,A_J3682,A_C3011_Z2_W56,A_C3011,SUFEW024
97,63,Nangalia Hospital,1,3,1,26.74092,83.36423,76.2978,"Verma Colony, Raiganj, Gorakhpur, Uttar Pradesh, 273001, India",A_J6539_Z3_W65,A_J6539,A_C215_2_Z3_W65,A_C215,GUFEW017
98,76,Gorakhpur Sadar Hospital,1,3,1,26.74779,83.36533,76.6717,"Towards Reti Chowk, Qazipur Khurd, Gorakhpur, Uttar Pradesh, 273001, India",A_J3643_Z3_W62,A_J3643,A_C2968_Z3_W65,A_C2968,GUFEW004
99,76,"Netaji Subhash Chandra Bose District Hospital, Gorakhpur",1,3,1,26.74781,83.36534,76.6816,"Ghosh Company Road, Towards, Reti Chowk Rd, Miyan Baza, Gorakhpur, Uttar Pradesh, 273001, India",A_J3643_Z3_W62,A_J3643,A_C2968_Z3_W65,A_C2968,GUFEW004
100,76,District Women Hospital,1,3,1,26.74921,83.36683,77.0466,"Ghosh Company Chowk, Near, Town Hall Rd, Miyan Baza, Gorakhpur, Uttar Pradesh, 273001, India",A_J3622_Z3_W62,A_J3622,A_C3139_Z3_W62,A_C3139,GUFEW004
101,44,Dr. Jameer Ahmad Turkmanpur,1,2,1,26.7394,83.35609,76.8788,"Unnamed Road, Turakmanpur, TP Nagar, Basantpur, Gorakhpur, Uttar Pradesh, 273005, India",A_M4_J276_Z2_W69,A_M4,A_C60_4_Z2_W32,A_C60,GUFEW018
102,44,"Dr Saurabh Kedie Hospital, Dr. Satyanand Kedia",1,2,1,26.73843,83.35908,75.496,"Unnamed Road, TP Nagar, Basantpur, Gorakhpur, Uttar Pradesh, 273005, India",A_J416_Z2_W32,A_J416,A_C352_4_Z3_W65,A_C352,GUFEW018
103,73,J J Hospital,1,2,1,26.74297,83.35446,77.5159,"Haalsiganj, TP Nagar, Basantpur, Gorakhpur, Uttar Pradesh, 273005, India",A_J6518_Z2_W44,A_J6518,A_C669_2_Z2_W32,A_C669,SUFEW038
104,69,Narayan Chikitsalaya,1,2,1,26.73793,83.35879,75.4626,"483B, Turakmanpur, TP Nagar, Basantpur, Gorakhpur, Uttar Pradesh, 273005, India",A_J6525_Z2_W32,A_J6525,A_C352_1_Z2_W32,A_C352,GUFEW018
105,77,AnnaPurna Child And Maternity Clinic,1,3,1,26.74376,83.35757,77.3972,"Raiganj Road, Beside Dr Sohan Lal's Clinic, Raiganj, Gorakhpur, Uttar Pradesh, 273001, India",A_J6522_Z3_W57,A_J6522,A_C3184_1_Z3_W76,A_C3184,SUFEW058
106,44,Dr. A. K. Singh Clinic,1,3,1,26.7429,83.36094,76.9626,"Raiganj, Gorakhpur, Uttar Pradesh, 273001, India",A_J3857_Z3_W57,A_J3857,A_C3187_1_Z3_W57,A_C3187,SUFEW058
107,71,Ahmad's Hospital,1,3,1,26.75603,83.35497,75.8104,"Abu Bazar, Oppo. Ideal Marriage House, Uchwa, Bade Kajipur, Gorakhpur, Uttar Pradesh, 273005, India",A_J3575_Z3_W49,A_J3575,C53_Z3_W61,C53_Z3,GUFEW074
108,61,Sparsh Child Care And NICU,1,3,1,26.75183,83.36547,77.7969,"9, Bank Rd, Vindyavasini Nagar, Gorakhpur, Uttar Pradesh, 273001, India",A_J3612_Z3_W62,A_J3612,A_C2936_2_Z3_W62,A_C2936,SUFEW012
109,76,Star Hospital Pvt.Ltd,1,3,1,26.75177,83.36662,77.9599,"Bank Road Golghar, Vindyavasini Nagar, Gorakhpur, Uttar Pradesh, 273001, India",A_J3613_Z3_W62,A_J3613,A_C2938_Z3_W62,A_C2938,GUFEW039
110,33,Raj Eye Hospital - Jhankar Branch,1,3,1,26.75379,83.35721,76.1131,"168/18 Naseerabad, Buxipur, Infront Of Marwar Business College, Near Jhankar Cinema, Bade Kajipur, Gorakhpur, Uttar Pradesh, 273005, India",A_J3571_Z3_W61,A_J3571,A_C2893_Z3_W61,A_C2893,GUFEW074
111,59,Mahfooz Hospital & Shamim Ara Critical Care Centre,1,3,1,26.75704,83.35455,75.8237,"Uchwa, Abu Bazar, Bade Kajipur, Gorakhpur, Uttar Pradesh, 273005, India",A_J3478_Z3_W49,A_J3478,C53_Z3_W61,C53_Z3,SUFEW006
112,73,Mall Hospital,1,3,1,26.75298,83.3598,76.4578,"119, Rajbi Rd, Muftipur, Miyan Baza, Gorakhpur, Uttar Pradesh, 273005, India",A_J6502_Z3_W61,A_J6502,A_C2842_2_Z3_W76,A_C2842,SUFEW007
113,61,Kanha Children Clinic,1,3,1,26.7537,83.36446,77.0008,"Pratibha Complex, Opp. Jubilee Inter College, Buxipur Rd, Ariya Poram Colony, Miyan Baza, Gorakhpur, Uttar Pradesh, 273001, India",A_J3625_Z3_W52,A_J3625,A_C2950_Z3_W52,A_C2950,SUFEW012
114,61,Agrawal Orthopaedic Hospital,1,3,1,26.75298,83.36568,77.1343,"Jubilee Road, Near, Bank Rd, Golghar, Gorakhpur, Uttar Pradesh, 273001, India",A_J3611_Z3_W62,A_J3611,A_C2949_Z3_W62,A_C2949,SUFEW012
115,33,Nijampur,1,3,1,26.755007,83.350388,75.9987,"Alingar Street, Mirzapur, Gorakhpur, Uttar Pradesh, 273005, India",D_J3556_Z3_W33,D_J3556,D_C2877_Z3_W33,D_C2877,SUFEW005
116,59,Aman Hospital Maternity,1,3,1,26.76186,83.35358,77.6251,"Jaffra Bazar, Bade Kajipur, Gorakhpur, Uttar Pradesh, 273005, India",D_J132_Z3_W59,D_J132,D_C2435_Z3_W59,D_C2435,SUFEW046
117,50,Dr Anita Khare,1,3,1,26.765,83.34703,75.7355,"75/2, Surajkund Colony, Gorakhpur, Uttar Pradesh, 273015, India",D_M2_J582_Z3_W50,D_M2,C4_Z4_W58,C4_Z4,SUFEW004
118,68,Niramay Child Care Clinic,1,4,1,26.76682,83.34418,76.3782,"A-12, Surajkund Colony, Gorakhpur, Uttar Pradesh, 273015, India",R_J495_Z4_W41,R_J495,C4_Z4_W58,C4_Z4,SUFEW009
119,50,Pacific Hospital (SURAJKUND),1,4,1,26.76835,83.34813,76.7515,"121V, Surya Vihar Colony, Netaji Subas Chandra Bos Nagar Colony, Surajkund Colony, Gorakhpur, Uttar Pradesh, 273015, India",J116_Z4_W58,J116_Z4,C168_Z4_W58,C168_Z4,SUFEW004
120,50,Surajkund Mahila Hospital,1,4,1,26.76687,83.34666,76.7198,"B-11, Near Nirankari Bhawan, Surajkund Colony, Gorakhpur, Uttar Pradesh, 273015, India",J116_Z4_W58,J116_Z4,C4_Z4_W58,C4_Z4,SUFEW004
121,68,Dr AK Upadhyay GKP Clinic,1,4,1,26.76819,83.3465,77.2279,"Surajkund Colony, Gorakhpur, Uttar Pradesh, 273015, India",M2_J542_Z4_W58,M2_J542,C168_Z4_W58,C168_Z4,SUFEW009
122,71,Shiv Radhika Memorial Hospital,1,3,1,26.7634,83.36022,77.4378,"Near RPF Center Durga Bari Road, Arya Nagar North, Bade Kajipur, Gorakhpur, Uttar Pradesh, 273005, India",J4938_Z3_W71,J4938_Z3,C43_9_Z3_W71,C43_9,SUFEW011
123,71,Raj Nursing Home,1,3,1,26.76269,83.36209,77.9345,"Durgabari Road, Near Raj Nursing Home, Arya Nagar North, Bade Kajipur, Gorakhpur, Uttar Pradesh, 273005, India",J4940_Z3_W71,J4940_Z3,C4431_Z3_W71,C4431_Z3,GUFEW067
124,71,Savitri Hospital And Research Centre,1,3,1,26.75817,83.36506,77.4896,"311, Bashratpur, Gorakhpur, Uttar Pradesh, 273001, India",J2347_Z3_W52,J2347_Z3,C1669_Z3_W52,C1669_Z3,SUFEW013
125,71,Balaji Nursing Home Dr Sunil Kumar Vaid Dr Prakriti Agarwal(obs.And Gynae),1,3,1,26.763,83.35954,78.127,"Near Petrol Pump Durga Wadi, Road, Bade Kajipur, Gorakhpur, Uttar Pradesh, 273005, India",J3958_Z3_W71,J3958_Z3,C38_1_Z3_W71,C38_1,SUFEW011
126,34,Savitri Hospital,1,3,1,26.76049,83.37317,77.4633,"Bashratpur, Gorakhpur, Uttar Pradesh, 273001, India",J6258_Z3_W48,J6258_Z3,C2914_Z3_W48,C2914_Z3,SUFEW040
127,21,Tinkonia No 2,1,1,1,26.774275,83.421372,78.9372,"Uttar Pradesh, 273014, India",J6083_Z1_W35,J6083_Z1,C127_Z1_W17,C127_Z1,SUFEW015
128,17,Ayushman Hospital Padri Bajar Gorakhpur,1,1,1,26.77909,83.40438,76.4341,"Padari Bazar Police Chwoki Jail By Pass Road, Saraswati Puram, Gorakhpur, Uttar Pradesh, 273014, India",J329_Z1_W17,J329_Z1,C654_1_Z1_W17,C654_1,SUFEW015
129,35,Vatsalya Child Care Center,1,1,1,26.78035,83.40371,75.427,"Gayatri Kunj, First Building, Bazar, Fatima Road, Opposite Machali, Hussain Nagar, Gorakhpur, Uttar Pradesh, 273014, India",J294_Z1_W17,J294_Z1,C310_Z1_W35,C310_Z1,SUFEW015
130,17,Ojas Hospital Mother & Child Care Centre,1,1,1,26.77683,83.40161,75.8887,"Jail ByPass Rd, Opp. Rajni Lawn, Shahpur, Gorakhpur, Uttar Pradesh, 273014, India",J212_Z1_W17,J212_Z1,C461_Z1_W17,C461_Z1,SUFEW015
131,17,Complete Dental Care,1,1,1,26.7783,83.40032,78.4866,"101, Jungle Matadin, Infront Of PCF Godown, Padari Police Chauki, Road, Shahpur, Gorakhpur, Uttar Pradesh, 273014, India",J6009_Z1_W17,J6009_Z1,C102_4_Z1_W17,C102_4,SUFEW015
132,17,Raj Vikram Hospital,1,1,1,26.78346,83.41321,77.958,"Vishwakarmapuram, Gorakhpur, Uttar Pradesh, 273014, India",J6082_Z1_W35,J6082_Z1,C127_Z1_W17,C127_Z1,SUFEW015
133,64,Srijan Eye & Mother Care,1,5,1,26.76985,83.38691,78.6237,"193, Jail Road, Geeta Vatika Rd, Shahpur, Gorakhpur, Uttar Pradesh, 273006, India",J6004_Z5_W43,J6004_Z5,C82_11_Z5_W29,C82_11,GUFEW057
134,64,Maa Vindhyawasini Neuro Center,1,5,1,26.77009,83.38623,77.9838,"150 G, Jail Rd, Shahpur, Gorakhpur, Uttar Pradesh, 273006, India",J461_Z5_W43,J461_Z5,C82_11_Z5_W29,C82_11,GUFEW057
135,43,Hanuman Prasad Poddar Cancer Hospital,1,5,1,26.77234,83.38789,78.6931,"Shahpur, Gitavatika, Near Cancer Hospital, Shahpur, Gorakhpur, Uttar Pradesh, 273006, India",J466_Z5_W43,J466_Z5,C104_1_Z5_W29,C104_1,GUFEW057
136,40,Shri Vinayak Hospital,1,5,1,26.776,83.38363,78.5788,"42, Jail Rd, Railway Dairy Colony, Shahpur, Gorakhpur, Uttar Pradesh, 273004, India",M5_J263_Z5_W43,M5_J263,C99_Z5_W46,C99_Z5,GUFEW052
137,29,Jain Hospital Orthopaedic And Trauma Center,1,5,1,26.77031,83.38454,78.5335,"150 G, Jail Rd, Shahpur, Gorakhpur, Uttar Pradesh, 273006, India",J6003_Z5_W64,J6003_Z5,C82_10_Z5_W29,C82_10,GUFEW057
138,35,Fatima Hospital,1,1,1,26.78726,83.4,79.3667,"Mother Teresa Road, Padri Bazar, PO, Gorakhpur, Uttar Pradesh, 273014, India",J302_Z1_W35,J302_Z1,C313_1_Z1_W35,C313_1,SUFEW015
139,35,Dr. Vinay Sinha- Physician & Cardiologist In Gorakhpur,1,1,1,26.78721,83.40004,79.4094,"Behind Fatima Hospital, Shatabdipuram, Gorakhpur, Uttar Pradesh, 273014, India",J302_Z1_W35,J302_Z1,C313_1_Z1_W35,C313_1,SUFEW015
140,35,Blue Lotus Multi-Specialty Hospital,1,1,1,26.78562,83.39987,78.4573,"Fatima ByPass Road Khajanchi Chowk, Hussain Nagar, Gorakhpur, Uttar Pradesh, 273014, India",J288_Z1_W35,J288_Z1,C307_1_Z1_W35,C307_1,SUFEW015
141,35,Kamala Hospital,1,1,1,26.78364,83.41298,77.5528,"Road Pipraich Road, Near Pappu Katra, Padri Bazar, Vishwakarmapuram, Gorakhpur, Uttar Pradesh, 273014, India",J6082_Z1_W35,J6082_Z1,C128_Z1_W35,C128_Z1,SUFEW015
142,31,Harsewakpur No. 2,1,5,1,26.800653,83.411105,78.539,"Hata Tola, Gorakhpur, Uttar Pradesh, 273014, India",M3_J489_Z5_W31,M3_J489,C69_Z5_W31,C69_Z5,GUFEW059
143,31,SC Harshwekpur No 2,1,5,1,26.801441,83.410347,78.4826,"Hata Tola, Gorakhpur, Uttar Pradesh, 273014, India",M3_J489_Z5_W31,M3_J489,C69_Z5_W31,C69_Z5,GUFEW059
144,31,Dr. Mukesh Singh,1,1,1,26.79176,83.40485,78.6009,"Luxmipur Rd, Shatabdipuram, Gorakhpur, Uttar Pradesh, 273014, India",J298_Z1_W35,J298_Z1,C73_Z5_W31,C73_Z5,GUFEW059
145,8,City Hospital,1,5,1,26.80753,83.39521,79.6537,"Mogalaha, Near BRD, Medical College, Mughala, Gorakhpur, Uttar Pradesh, 273014, India",J342_Z5_W2,J342_Z5,C276_2_Z5_W2,C276_2,GUFEW073
146,2,Rachit MultiSpeciality Hospital,1,5,1,26.80748,83.39496,79.6222,"Medical College Road, Near BRD Medical College, Mugalaha, Mughala, Gorakhpur, Uttar Pradesh, 273014, India",J342_Z5_W2,J342_Z5,C276_2_Z5_W2,C276_2,GUFEW073
147,5,GreenLand Hospital And Research Centre Pvt.Ltd,1,5,1,26.80901,83.39457,79.4733,"Mughalaha, B, Sandhya Vihar Colony, R.D, Medical College Road, Chargawa, Gorakhpur, Uttar Pradesh, 273004, India",J227_Z5_W2,J227_Z5,C279_1_Z5_W2,C279_1,GUFEW073
148,8,Rana Hospital Pvt. Ltd.,1,5,1,26.80471,83.39049,78.6629,"Rana Hospital Pvt. Ltd, Rail Vihar, Medical College Road, Chargawa, Gorakhpur, Uttar Pradesh, 273004, India",J6154_Z5_W8,J6154_Z5,C421_1_Z5_W8,C421_1,GUFEW073
149,2,Rahul Nursing Home Best Physician & Trauma Centre In Gorakhpur,1,5,1,26.80833,83.39415,79.2319,"Rahul Nursing Home Moglhan, Medical College Road, Chargawa, Gorakhpur, Uttar Pradesh, 273004, India",J342_Z5_W2,J342_Z5,C279_1_Z5_W2,C279_1,GUFEW073
150,5,Green Land Hospital,1,5,1,26.81177,83.39083,78.4571,"Unnamed Road Indraprastha Colony 273004, Indraprastha Colony, Chargawa, Gorakhpur, Uttar Pradesh",J441_Z5_W5,J441_Z5,C5676_Z5_W5,C5676_Z5,GUFEW073
151,5,"Baba Raghav Das Medical College, Gorakhpur",3,5,1,26.81358,83.39994,78.6333,"Uttar Pradesh, 273013, India",J223_Z5_W5,J223_Z5,C132_Z5_W5,C132_Z5,GUFEW073
152,5,Dr Shariq Nawaz- Rainbow Hospital Gorakhpur,1,5,1,26.82018,83.39354,79.7643,"Near Star Academy School, FCI Rd, Fertilizer Colony, Gorakhpur, Uttar Pradesh, 273013, India",J6357_Z5_W5,J6357_Z5,C5682_Z5_W5,C5682_Z5,GUFEW073
153,5,Chandra Hospital BRD Medical College. Dr. Satish Nayak Neurosurgeon (MCH),1,5,1,26.81353,83.39835,79.442,"Vidhyak Niwas, Gorakhpur, Uttar Pradesh, 273013, India",J223_Z5_W5,J223_Z5,C133_Z5_W2,C133_Z5,GUFEW073
154,30,Satya Hospital,1,5,1,26.82162,83.40492,79.2588,"Medical College Road, Jhungiya, B.R.D, Gorakhpur, Jungle Dhusan, Uttar Pradesh, 273013, India",J6158_Z5_W30,J6158_Z5,C230_Z5_W30,C230_Z5,GUFEW073
155,30,Jhungiya Medical Gorakhpur,1,5,1,26.81769,83.40243,80.4624,"BRD Medical College, Jhungiya, Gorakhpur, Uttar Pradesh, 273013, India",J6091_Z5_W30,J6091_Z5,C126_Z5_W5,C126_Z5,GUFEW073
156,30,Heritage Hospital,1,5,1,26.81766,83.40107,79.43,"401G, Harsewakpur No.2, Near Chandi Mata Mandir, Jhungiya, Gorakhpur, Uttar Pradesh, 273013, India",J6091_Z5_W30,J6091_Z5,C132_Z5_W5,C132_Z5,GUFEW073
157,30,Rudra Hospital - 24 Hours Children Hospital | Top Children Hospitals | NewBorn And Child Care Center In Gorakhpur,1,5,1,26.81758,83.40043,80.0118,"Medical College Road, Jhungiya, Vidhyak Niwas, Gorakhpur, Uttar Pradesh, 273013, India",J6390_Z5_W30,J6390_Z5,C5685_1_Z5_W5,C5685_1,GUFEW073
158,30,SC Manbela,1,5,1,26.823804,83.408561,80.3531,"Maharajganj Road, Jhungia Bazar, Gorakhpur, Uttar Pradesh, 273013, India",J6394_Z5_W30,J6394_Z5,C5685_Z5_W30,C5685_Z5,GUFEW073
159,8,Saanvi Health Care,1,5,1,26.8029,83.38119,78.4641,"Unnamed Road, 4, Gorakhpur Rd, Railvihar Ph-2 Colony, Raptinagar Phase -4, Gorakhpur, Uttar Pradesh, 273004, India",J6366_Z5_W8,J6366_Z5,C37_16_Z5_W8,C37_16,GUFEW073
160,8,Sanjeevani Hospital And Research Center,1,5,1,26.80537,83.38659,78.337,"C-336, Medical College Road, Railvihar Ph-2 Colony, Raptinagar Phase -4, Gorakhpur, Uttar Pradesh, 273004, India",J6156_Z5_W8,J6156_Z5,C422_3_Z5_W8,C422_3,GUFEW073
161,8,Neelabh Hospital & Trauma Centre,1,5,1,26.7978,83.38109,78.4681,"Sports College Rd, Phase 1, Ganga Tola, Gorakhpur, Uttar Pradesh, 273004, India",J532_Z5_W80,J532_Z5,C265_10_Z5_W9,C265_10,GUFEW054
162,54,Composite Hospital SSB,1,5,1,26.82245,83.36914,78.7339,"FCI Hospital, Fertilizer Colony, Gorakhpur, Uttar Pradesh, 273007, India",RS_M2_J652_Z4_W10,RS_M2,RS_C107_2_Z4_W10,RS_C107,GUFEW073
163,54,FCI Hospital,1,5,1,26.82296,83.36905,78.6429,"Fertilizer Colony, Gorakhpur, Uttar Pradesh, 273007, India",RS_M2_J652_Z4_W10,RS_M2,RS_C107_2_Z4_W10,RS_C107,GUFEW073
164,13,HN Hospital,1,4,1,26.81638,83.35016,79.0276,"Moharipur, Gorakhpur, Uttar Pradesh, 273007, India",RS_J4847_Z4_W10,RS_J4847,RS_C107_9_Z4_W10,RS_C107,GUFEW013/28
165,10,SC Maheshara,1,4,1,26.819505,83.350212,77.9518,"Nautanwa Road, Mohari Pur, Gorakhpur, Uttar Pradesh, 273007, India",J150_Z4_W10,J150_Z4,RS_C107_8_Z4_W10,RS_C107,GUFEW013/28
166,10,Panchkarma Ayurveda Help Centre,1,4,1,26.8154,83.35465,78.7356,"Jungle Beni Madhav No.2, Tarahwa, Moharipur, Gorakhpur, Uttar Pradesh, 273007, India",RS_M2_J85_Z4_W10,RS_M2,RS_C117_10_Z4_W10,RS_C117,GUFEW013/28
167,10,Prince Hospital,1,4,1,26.81903,83.34997,78.4456,"Gorakhpur - Sonauli Rd, Shyamnagar, Moharipur, Gorakhpur, Uttar Pradesh, 273007, India",J147_Z4_W10,J147_Z4,RS_C107_8_Z4_W10,RS_C107,GUFEW013/28
168,13,M. Azad Hospital And Heart Care Center,1,4,1,26.81381,83.3496,79.0316,"Shekhpurwa Rd, Moharipur Bazar, Bargadwa, Gorakhpur, Uttar Pradesh, 273007, India",RS_J4939_Z4_W10,RS_J4939,RS_C110_18_Z4_W13,RS_C110,GUFEW013/28
169,13,Maheshra,1,4,1,26.81573,83.342337,78.0038,"Uttar Pradesh, 273007, India",RS_J4945_Z4_W10,RS_J4945,RS_C110_5_Z4_W13,RS_C110,GUFEW013/28
170,13,Jn Hospital,1,4,1,26.81275,83.34828,78.8758,"Moharipur, PNB Road, Bargadwa, Gorakhpur, Uttar Pradesh, 273007, India",RS_J4946_Z4_W10,RS_J4946,RS_C110_23_Z4_W13,RS_C110,GUFEW013/28
171,14,Sheetal Hospital,1,4,1,26.7918,83.35611,78.5191,"Dayanand Nagar, Gorakhpur, Uttar Pradesh, 273007, India",RS_J5585_Z4_W20,RS_J5585,RS_C120_5_Z4_W20,RS_C120,GUFEW062
172,60,Khetan Hostipal,1,4,1,26.79985,83.35391,78.8343,"Bargadawa, 273007, Awas Vikas Colony, Rapti Nagar Phase-4, Gorakhpur, Uttar Pradesh",RS_J5373_Z4_W60,RS_J5373,RS_C119_3_Z4_W60,RS_C119,GUFEW013/28
173,60,Khetan Multi Speciality Hospital,1,4,1,26.8002,83.35406,78.0768,"Gorakhpur - Sonauli Rd, Vistar Colony, Gorakhpur, Uttar Pradesh, 273007, India",RS_J5373_Z4_W60,RS_J5373,RS_C119_3_Z4_W60,RS_C119,GUFEW013/28
174,14,"Katyani Hospital, Vaibhavnagar, Ragendranagar",1,4,1,26.78961,83.3561,79.006,"Vrindavan Rd, Vrindavan, Rajendra Nagar, Gorakhpur, Uttar Pradesh, 273015, India",RS_J5611_Z4_W20,RS_J5611,RS_C121_6_Z4_W20,RS_C121,GUFEW062
175,14,Katyayini Hospital,1,4,1,26.78966,83.35622,79.1425,"Vaibhao Nagar, Rajendra Nagar, Gorakhpur, Uttar Pradesh, 273015, India",RS_J5611_Z4_W20,RS_J5611,RS_C121_6_Z4_W20,RS_C121,GUFEW062
176,74,Anandlok Hospital,1,4,1,26.77781,83.3577,79.0735,"National Highway 29, Rajendra Nagar, Gorakhpur, Uttar Pradesh, 273017, India",J6130_Z4_W78,J6130_Z4,C119_2_Z4_W78,C119_2,SUFEW018
177,20,Aditya Urology Centre And Maternity Home,1,4,1,26.78445,83.35349,79.1237,"310, Bankatwa Road, 10 No. Boring, Gorakhnath, Unnamed Road, Rajendra Nagar, Gorakhpur, Uttar Pradesh, 273015, India",RS_J5895_Z4_W20,RS_J5895,RS_C133_2_Z4_W14,RS_C133,SUFEW018
178,20,Ansh Orthopaedic Centre,1,4,1,26.78392,83.35455,78.8443,"HariKrishna Nagar Colony, Rajendra Nagar, Gorakhpur, Uttar Pradesh, 273015, India",RS_J5895_Z4_W20,RS_J5895,RS_C133_2_Z4_W14,RS_C133,SUFEW018
179,74,Guru Shri Gorakhnath Chikitsalaya,1,4,1,26.77634,83.35777,78.7301,"Gorakhnath Mandir Campus, Gorakhnath, Gorakhpur, Uttar Pradesh, 273017, India",J6142_Z4_W78,J6142_Z4,C119_1_Z4_W78,C119_1,SUFEW018
180,42,Swastik Merry Gold Hospital,1,4,1,26.78546,83.35323,79.5932,"289- C, Saketpuri Colony, 10 No. Boring, Gorakhnath, Gorakhpur, Uttar Pradesh, 273015, India",RS_M2_J627_Z4_W20,RS_M2,RS_C133_2_Z4_W14,RS_C133,GUFEW009
181,58,Shashank Hospital,1,4,1,26.77472,83.34554,77.2161,"Unnamed Road, Netaji Subas Chandra Bos Nagar Colony, Rajendra Nagar, Gorakhpur, Uttar Pradesh, 273015, India",J114_Z4_W66,J114_Z4,C154_1_Z4_W66,C154_1,SUFEW008
182,15,Kuber Hospital,1,4,1,26.76659,83.35787,77.5206,"Gorakhnath, Gorakhpur, Uttar Pradesh, 273017, India",M2_J561_Z4_W15,M2_J561,C123_2_Z4_W78,C123_2,SUFEW011
183,74,Jai Hospital And Maternity Home,1,4,1,26.77301,83.35958,79.3431,"Gorakhnath Mandi East Gate, Gorakhnath Rd, Opposite Water Tank, Mirzapur Pachpedwa, Gorakhpur, Uttar Pradesh, 273017, India",J157_Z4_W78,J157_Z4,RS_C122_9_Z4_W78,RS_C122,GUFEW037
184,74,Gorakhshanath Chikitsalaya,1,4,1,26.77567,83.3583,79.1459,"NH 29, Rajendra Nagar, Gorakhpur, Uttar Pradesh, 273017, India",J154_Z4_W78,J154_Z4,C119_1_Z4_W78,C119_1,SUFEW036
185,78,JP Hospital,1,4,1,26.77213,83.35714,79.2909,"Rasoolpur, Aditya Naga, Rajendra Nagar, Gorakhpur, Uttar Pradesh, 273017, India",J6057_Z4_W78,J6057_Z4,C132_1_Z4_W28,C132_1,GUFEW037
186,20,Gorakhnath Temple & Hospital,1,4,1,26.78284,83.36124,78.8744,"Gorakhnath, Gorakhpur, Uttar Pradesh, 273015, India",J6152_Z4_W20,J6152_Z4,RS_C124_16_Z4_W20,RS_C124,SUFEW036
187,34,Baranwal Homeopathy,1,4,1,26.7664,83.36617,77.2849,"163/a, Jatepur North, Gorakhpur, Uttar Pradesh, 273017, India",R_J732_Z4_W27,R_J732,R_C388_11_Z4_W16,R_C388,GUFEW060
188,16,Purvanchal Hospital,1,4,1,26.7704,83.35857,78.3909,"National Highway 29, North Humayunpur, Gorakhpur, Uttar Pradesh, 273017, India",R_J747_Z4_W78,R_J747,C123_4_Z4_W78,C123_4,GUFEW037
189,16,Gorakhnath Dental Hospital,1,4,1,26.77189,83.35899,78.5235,"Near Gorakhnath Temple, NH 29, Nepal Road, Right Side In Gorakhnath Mandir, Police Station, Adjacent To Gorakhnath, Mirzapur Pachpedwa, Gorakhpur, Uttar Pradesh, 273017, India",J6144_Z4_W78,J6144_Z4,RS_C122_9_Z4_W78,RS_C122,GUFEW037
190,20,Ishita Hospital,1,4,1,26.78834,83.35984,78.7234,"Bhagwati Chauraha, Rajendra Nagar, Gorakhpur, Uttar Pradesh, 273015, India",RS_J481_Z4_W20,RS_J481,RS_C365_3_Z4_W20,RS_C365,GUFEW062
191,20,Saumya Hospital,1,4,1,26.78759,83.35657,79.4607,"Gorakhnath Bridge, PO, Sonauli Rd, Rajendra Nagar, Gorakhpur, Uttar Pradesh, 273015, India",RS_J5655_Z4_W20,RS_J5655,RS_C121_12_Z4_W20,RS_C121,GUFEW062
192,60,Kanha Health Care Centre,1,4,1,26.80334,83.35247,79.509,"Bargadwa, Gorakhpur, Uttar Pradesh, 273007, India",RS_J109_Z4_W60,RS_J109,RS_C136_2_Z4_W14,RS_C136,GUFEW013/28
193,60,Khetan Multi Speciality And Medical Research Centre,1,4,1,26.806643,83.350141,78.1712,"Bargadwa Gorakhpur, Gorakhpur, Uttar Pradesh, 273007, India",J6126_Z4_W60,J6126_Z4,RS_C109_4_Z4_W14,RS_C109,GUFEW013/28
194,60,Bhagwanpur,1,4,1,26.805615,83.362562,79.6859,"Gorakhpur, Uttar Pradesh, 273004, India",J6330_Z4_W60,J6330_Z4,C5674_1_Z5_W54,C5674_1,GUFEW013/28
195,80,Ridhi Hospital,1,5,1,26.79041,83.38045,79.2552,"Near Shahpur, Ganga Nagar, Basharatpur West, Chowk, Thana, Gorakhpur, Uttar Pradesh, 273004, India",J787_Z5_W80,J787_Z5,C239_3_Z5_W53,C239_3,GUFEW054
196,53,Shubhechha Clinic (Dr Rashmi Singh),1,5,1,26.78989,83.36962,78.9398,"RamJanki Nagar, Gorakhpur, Uttar Pradesh, 273004, India",J6165_Z5_W9,J6165_Z5,C175_1_Z5_W9,C175_1,SUFEW052
197,53,Vedansh Hospital Multi Speciality Hospital,1,5,1,26.78928,83.37368,78.193,"Bhediyagarh, Gorakhpur, Uttar Pradesh, 273004, India",J6181_Z5_W53,J6181_Z5,C172_1_Z5_W9,C172_1,SUFEW052
198,9,Chiranjivi Hospital,1,5,1,26.79852,83.37691,78.7547,"Sports College Chauraha, Chiranjivi Hospital, Gorakhnath Rd, Anand Vihar, Gorakhpur, Uttar Pradesh, 273004, India",J6196_Z5_W9,J6196_Z5,C100_8_Z5_W9,C100_8,GUFEW065
199,53,RamJanki Nager Sundram Marriage Hall,1,5,1,26.78789,83.37459,78.1915,"RamJanki Nagar, Gorakhpur, Uttar Pradesh, 273004, India",J6182_Z5_W53,J6182_Z5,C147_32_Z5_W9,C147_32,SUFEW052
200,80,Dr. A.K. Rai Child Doctor,1,5,1,26.78615,83.3819,79.3247,"392 Y, Ganga Nagar, RamJanki Nagar, Gorakhpur, Uttar Pradesh, 273004, India",J6115_Z5_W80,J6115_Z5,C239_10_Z5_W53,C239_10,GUFEW069
201,53,P C Hospital,1,5,1,26.786856,83.373419,78.8147,"Basharat Pur, Gorakhpur, Uttar Pradesh, 273004, India",J879_Z5_W53,J879_Z5,C297_5_Z5_W53,C297_5,SUFEW052
202,36,Prayash Hospital (Vaccination Center),1,5,1,26.77725,83.38075,78.189,"Bholaji Puram, Basharatpur, Ashok Nagar, Gorakhpur, Uttar Pradesh, 273004, India",J131_Z5_W12,J131_Z5,C224_Z5_W12,C224_Z5,SUFEW044
203,46,Shishodia Orthopaedic Center || Best & Top Joint Replacement Surgeon | Sports Injury & Arthroscopic Surgeon,1,5,1,26.7817,83.3855,77.8973,"168 B, Medical College Road, Near Petrol Pump, Siva Puram, Gorakhpur, Uttar Pradesh, 273004, India",J1162_Z5_W12,J1162_Z5,C98_17_Z5_W46,C98_17,GUFEW069
204,46,Dr Chaturvedi Cancer Hospital And Research Institute Pvt. Ltd.,1,5,1,26.78396,83.38558,78.3838,"Dr Chaturvedi Cancer Hospital And Research Institute Pvt. Ltd, 189-C Medical College Road, Harhwa Fatak Rd, Basharatpur, Nagar Villa, Ashok Nagar, Gorakhpur, Uttar Pradesh, 273004, India",J712_Z5_W46,J712_Z5,C98_16_Z5_W46,C98_16,GUFEW069
205,46,H N Singh Hospital,1,5,1,26.78594,83.38517,79.337,"Medical College Road, Basharatpur, Gorakhpur, Uttar Pradesh, 273004, India",J161_Z5_W46,J161_Z5,C240_Z5_W12,C240_Z5,GUFEW069
206,80,"Purvanchal Metro City Hospital, Gorakhpur",1,5,1,26.78652,83.384,78.8891,"Govind Nagari H. N. Singh Chauraha, Medical College Road, Basharatpur, Gorakhpur, Uttar Pradesh, 273004, India",J507_Z5_W46,J507_Z5,C238_4_Z5_W80,C238_4,GUFEW069
207,80,Smita Nursing Home,1,5,1,26.79163,83.38714,78.2653,"Medical College Road, Aam Bazar, Gorakhpur, Uttar Pradesh, 273003, India",M3_J468_Z5_W80,M3_J468,C241_Z5_W46,C241_Z5,GUFEW058
208,80,Lokpriya Hospital,1,5,1,26.79577,83.38476,78.4854,"MiG-35, Phase 1, Raptinagar, Anand Vihar, Gorakhpur, Uttar Pradesh, 273004, India",J253_Z5_W80,J253_Z5,C292_1_Z5_W8,C292_1,GUFEW058
209,40,Lalit Narayan Mishra Railway Hospital,1,5,1,26.7669,83.37861,78.2127,"Kawwa Bagh Colony, Gorakhpur, Uttar Pradesh, 273012, India",J5006_Z5_W34,J5006_Z5,C4508_Z1_W45,C4508_Z1,GUFEW081
210,34,SGP Fracture Clinic,1,5,1,26.77144,83.38189,79.3185,"660E, Medical College Road, Vishnu Nagar, Bhediyagarh, Gorakhpur, Uttar Pradesh, 273004, India",J365_Z5_W64,J365_Z5,C100_2_Z5_W43,C100_2,SUFEW033
211,34,City Hospital,1,3,1,26.76049,83.37317,77.4633,"Sikriganj - Gorakhpur Main Rd, Alinagar, Bashratpur, Gorakhpur, Uttar Pradesh, 273001, India",J6258_Z3_W48,J6258_Z3,C2914_Z3_W48,C2914_Z3,SUFEW040
212,36,Dr. Dharmendra Rai And Dr. Sweety Rai,1,5,1,26.77712,83.38072,77.8197,"Basharatpur, Ashok Nagar, Gorakhpur, Uttar Pradesh, 273004, India",J131_Z5_W12,J131_Z5,C224_Z5_W12,C224_Z5,SUFEW044
213,36,D.K. Rai And Sweety Rai,1,5,1,26.77715,83.38078,78.7548,"99A, Bholaji Puram, Ashok Nagar, Gorakhpur, Uttar Pradesh, 273004, India",J131_Z5_W12,J131_Z5,C224_Z5_W12,C224_Z5,SUFEW044
214,36,Narayan Hospital Trauma & MultiSpeciality Centre,1,5,1,26.774452,83.37842,78.1241,"Harhawa Fatak, Gorakhpur, Uttar Pradesh, 273004, India",J194_Z5_W64,J194_Z5,C258_Z5_W40,C258_Z5,GUFEW072
215,36,Shanti Sadan,1,4,1,26.77344,83.37058,78.3813,"Harahwa Phatak, Jateypur, North Humayunpur, Gorakhpur, Uttar Pradesh, 273004, India",J484_Z4_W36,J484_Z4,C360_Z4_W16,C360_Z4,GUFEW030
216,3,Khorabar Durga Chauk,2,1,2,26.7089,83.4288,76.1303,"Khorabar, Gorakhpur, Uttar Pradesh, 273010, India",K_J6476_Z1_W3,K_J6476,K_C5903_Z1_W1,K_C5903,GUFEW008
217,6,Shiv Temple,2,1,2,26.71004,83.43775,78.2231,"Divya Nagar Vistar, Khorabar, Khorabar Urf Soobabazar, Uttar Pradesh, 273010, India",K_J6295_Z1_W3,K_J6295,K_C5153_3_Z1_W6,K_C5153,GUFEW008
218,6,Sikkata,2,1,2,26.70114,83.43508,72.6898,"Jungle Ramgarh Urf Chawri, Siktaur, Gorakhpur, Uttar Pradesh, 273016, India",K_J6294_Z1_W6,K_J6294,K_C5153_1_Z1_W6,K_C5153,SUFEW048
219,6,Bagicha,2,1,2,26.70759,83.44564,77.1941,"Khorabar, Gorakhpur, Uttar Pradesh, 273016, India",K_J6292_Z1_W6,K_J6292,K_C5153_1_Z1_W6,K_C5153,SUFEW048
220,6,Kaali Mandir,2,1,2,26.70953,83.42987,77.0399,"Khorabar, Gorakhpur, Uttar Pradesh, 273010, India",K_J6476_Z1_W3,K_J6476,K_C5903_Z1_W1,K_C5903,GUFEW008
221,3,Ranidiha Khorabar Gorakhpur,2,1,2,26.72046,83.43132,78.3301,"Ranidiha Siktaur Rd, Divya Nagar, Mahadevapuram Colony, Khorabar, Gorakhpur, Uttar Pradesh, 273010, India",K_J6469_Z1_W3,K_J6469,K_C5901_1_Z1_W4,K_C5901,GUFEW008
222,4,Bagha Baba Mandir,2,1,2,26.73122,83.4301,76.7392,"MMMUT Gate, Deoria Rd, Singhariya, Kunraghat, Gorakhpur, Uttar Pradesh, 273010, India",K_J6300_Z1_W4,K_J6300,K_C5843_1_Z1_W4,K_C5843,GUFEW078
223,1,Noori Masjid Dibhiya,2,1,2,26.72512,83.43028,78.0133,"F-43, Divya Nagar, Mahadevapuram Colony, Khorabar, Gorakhpur, Uttar Pradesh, 273010, India",K_J6455_Z1_W4,K_J6455,K_C5153_11_Z1_W4,K_C5153,GUFEW008
224,4,Sahib Darbar,2,1,2,26.72415,83.43462,77.6913,"Divya Nagar, Mahadevapuram Colony, Ranidiha, Gorakhpur, Uttar Pradesh, 273010, India",K_J6456_Z1_W4,K_J6456,K_C5153_7_Z1_W4,K_C5153,GUFEW008
225,4,Divyeshwar MahaDev Mandir,2,1,2,26.7233,83.43509,78.5729,"Divya Nagar, Ranidiha, Gorakhpur, Uttar Pradesh, 273010, India",K_J6481_Z1_W4,K_J6481,K_C5895_2_Z1_W4,K_C5895,GUFEW008
226,3,Shiv Mandir Uttar Tola,2,1,2,26.7129,83.42991,77.7216,"Khorabar, Gorakhpur, Uttar Pradesh, 273010, India",K_J6476_Z1_W3,K_J6476,K_C5903_Z1_W1,K_C5903,GUFEW008
227,3,Shiv Mandir,2,1,2,26.71284,83.42981,77.4186,"Khorabar, Gorakhpur, Uttar Pradesh, 273010, India",K_J6476_Z1_W3,K_J6476,K_C5903_Z1_W1,K_C5903,GUFEW008
228,3,Khorabar Gorakhpur Kali Mandir,2,1,2,26.71027,83.42857,77.3164,"Kali Mandir, Khorabar, Gorakhpur, Uttar Pradesh, 273010, India",K_J6476_Z1_W3,K_J6476,K_C5903_Z1_W1,K_C5903,GUFEW008
229,1,Bhairopur Kali Mandir,2,1,2,26.72327,83.42409,76.9596,"Mahadevapuram Colony, Kunraghat, Bhairopur, Gorakhpur, Uttar Pradesh, 273010, India",K_J6452_Z1_W1,K_J6452,K_C5893_Z1_W1,K_C5893,GUFEW008
230,1,Budhiya Ma Mandir,2,1,2,26.72458,83.41835,76.3368,"Mahadevapuram Colony, Rapti Nagar Phase-4, Bhairopur, Mahadevapuram Colony, Kunraghat, Gorakhpur, Uttar Pradesh, 273010, India",K_J6452_Z1_W1,K_J6452,K_C5893_Z1_W1,K_C5893,GUFEW078
231,1,Durga Mandir,2,1,2,26.72298,83.41976,75.3136,"Mahadevapuram Colony, Rapti Nagar Phase-4, Gorakhpur, Uttar Pradesh, 273010, India",K_J6452_Z1_W1,K_J6452,K_C5893_Z1_W1,K_C5893,GUFEW078
232,1,Aashirwad House,2,1,2,26.72341,83.4184,75.2076,"Mahadevapuram Colony, Bhairopur, Uttar Pradesh, 273010, India",K_J6452_Z1_W1,K_J6452,K_C5893_Z1_W1,K_C5893,GUFEW078
233,7,"Sanatan Dharma Mandir, Sanik Kunj",2,1,2,26.75264,83.43578,78.8181,"171, New Project Rd, Sainik Kunj, Nanda Nagar, Air Force Area, Uttar Pradesh, 273008, India",K_J216_Z1_W7,K_J216,K_C654_4_Z1_W7,K_C654,SUFEW050
234,7,Hanuman Mandir DARGAHIYA,2,1,2,26.75241,83.42933,77.383,"Darghiya, Nanda Nagar, Gorakhpur, Uttar Pradesh, 273008, India",K_J217_Z1_W7,K_J217,K_C1661_1_Z1_W7,K_C1661,SUFEW050
235,7,Sanik Vihar Shivji Mandir,2,1,2,26.75559,83.43769,78.1912,"Sainik Vihar, Nanda Nagar, Gorakhpur, Uttar Pradesh, 273008, India",K_J216_Z1_W7,K_J216,K_C654_4_Z1_W7,K_C654,SUFEW050
236,7,Durga Mandir,2,1,2,26.75615,83.44165,78.1708,"Sainik Vihar, Nanda Nagar, Air Force Area, Gorakhpur, Uttar Pradesh, 273008, India",K_J216_Z1_W7,K_J216,K_C654_4_Z1_W7,K_C654,SUFEW050
237,7,Shiv Mandir,2,1,2,26.75013,83.43482,78.1704,"Sainik Kunj, Nanda Nagar, Air Force Area, Sainik Kunj, Nanda Nagar, Gorakhpur, Uttar Pradesh, 273008, India",K_J216_Z1_W7,K_J216,K_C654_4_Z1_W7,K_C654,SUFEW050
238,25,Jharkhandi Mandir Dwar & Jharkhandi Gate,2,1,2,26.74316,83.41982,77.4857,"MahaDev Jharkhandi, Singhariya, Awas Vikas Colony, Kunraghat, Gorakhpur, Uttar Pradesh, 273008, India",K_J6262_Z1_W25,K_J6262,K_C5847_Z1_W25,K_C5847,SUFEW023
239,25,MahaDev Jharkhandi Shivji Mandir,2,1,2,26.73642,83.41859,76.7607,"1, MahaDev Jharkhandi, Singhariya, Awas Vikas Colony, Kunraghat, Gorakhpur, Uttar Pradesh, 273008, India",K_J6273_Z1_W25,K_J6273,K_C1664_5_Z1_W25,K_C1664,SUFEW023
240,25,Oba Mata Mandir,2,1,2,26.7395,83.41813,76.8182,"Abhisek Nagar, Singhariya, Awas Vikas Colony, Rapti Nagar Phase-4, Gorakhpur, Uttar Pradesh, 273008, India",K_J6380_Z1_W25,K_J6380,K_C5874_Z1_W25,K_C5874,SUFEW023
241,25,Shitla Mata Mandir,2,1,2,26.7438,83.42718,77.2969,"Adarsh Nagar, Lane-3, 273008, Kunraghat, Gorakhpur, Uttar Pradesh",K_J6482_Z1_W25,K_J6482,K_C5844_Z1_W7,K_C5844,SUFEW047
242,25,Hanuman Mandir,2,1,2,26.74272,83.42028,77.2902,"MahaDev Jharkhandi, Awas Vikas Colony, Kunraghat, Gorakhpur, Uttar Pradesh, 273008, India",K_J6274_Z1_W25,K_J6274,K_C5846_2_Z1_W25,K_C5846,SUFEW023
243,23,Gayatri Mandir,2,1,2,26.76199,83.41473,77.475,"Maitripuram, Gorakhpur, Uttar Pradesh, 273014, India",M5_J448_Z1_W23,M5_J448,C196_Z1_W18,C196_Z1,SUFEW022
244,18,Gaytri Mandir,2,1,2,26.76157,83.41539,77.2519,"Maitripuram, Air Force Area, Bichhiya Railway Colony, Gorakhpur, Uttar Pradesh, 273014, India",M5_J448_Z1_W23,M5_J448,C196_Z1_W18,C196_Z1,SUFEW022
245,18,Bichhiya Hanuman Mandir,2,1,2,26.75635,83.41443,72.6667,"Maitripuram, Gorakhpur, Uttar Pradesh, 273014, India",M5_J719_Z1_W18,M5_J719,C197_Z1_W18,C197_Z1,SUFEW022
246,18,Teacher Colony,2,1,2,26.75876,83.4228,77.8026,"Air Force Colony, Nanda Nagar, Gorakhpur, Uttar Pradesh, 273014, India",M5_J719_Z1_W18,M5_J719,C196_Z1_W18,C196_Z1,SUFEW050
247,18,Durga Mandir Mr.Bachchulal Nivas 14,2,1,2,26.75777,83.41517,75.2081,"Maitripuram, Gorakhpur, Uttar Pradesh, 273014, India",M5_J719_Z1_W18,M5_J719,C196_Z1_W18,C196_Z1,SUFEW022
248,22,Hanuman Mandir,2,1,2,26.76107,83.40576,77.4443,"Maitripuram, Gorakhpur, Uttar Pradesh, 273014, India",M5_J679_Z1_W23,M5_J679,C195_Z1_W23,C195_Z1,SUFEW022
249,23,A 2 Z Dog,2,1,2,26.75885,83.4046,76.3467,"Hanuman Mandir, Sarvodaya Nagar Rd, Bichhiya Railway Colony, Gorakhpur, Uttar Pradesh, 273014, India",M5_J499_Z1_W23,M5_J499,C93_1_Z1_W23,C93_1,SUFEW022
250,23,Hanuman Mandir,2,1,2,26.75885,83.40458,76.2823,"Jungle Tulsiram, Bichhiya Railway Colony, Gorakhpur, Uttar Pradesh, 273014, India",M5_J499_Z1_W23,M5_J499,C93_1_Z1_W23,C93_1,SUFEW022
251,22,Kali Mandir,2,1,2,26.76203,83.40102,77.2786,"Maitripuram, Gorakhpur, Uttar Pradesh, 273014, India",J4_Z1_W22,J4_Z1,C89_1_Z1_W45,C89_1,SUFEW022
252,67,Shri Gopal Mandir,2,1,2,26.74966,83.40355,78.6092,"Gopal Mandir, Mohaddipur, Gorakhpur, Uttar Pradesh, 273009, India",A_J5293_Z1_W67,A_J5293,A_C4950_Z1_W67,A_C4950,SUFEW022
253,67,GuruDwara Shri Guru Nanak Satsang Sabha,2,1,2,26.74857,83.40265,77.4823,"Near, Kasya Rd, Opposite Of Hotel Karim, Mohaddipur, Gorakhpur, Uttar Pradesh, 273009, India",A_J5292_Z1_W67,A_J5292,A_C4784_Z1_W67,A_C4784,SUFEW022
254,67,Hanuman Mandir,2,1,2,26.74826,83.40499,77.3514,"Sarvodaya Nagar Rd, Bichhiya Railway Colony, Gorakhpur, Uttar Pradesh, 273009, India",J85_Z1_W67,J85_Z1,C47_Z1_W67,C47_Z1,SUFEW022
255,45,Saheed Smarak (Shiv Singh Chhetri),2,1,2,26.7584,83.39865,77.8606,"Bichhiya Railway Colony, Gorakhpur, Uttar Pradesh, 273012, India",M5_J471_Z1_W67,M5_J471,C90_Z1_W23,C90_Z1,SUFEW022
256,67,Durga Mandir,2,1,2,26.75922,83.40083,74.349,"Bichhiya Railway Colony, Gorakhpur, Uttar Pradesh, 273014, India",M5_J475_Z1_W23,M5_J475,C90_Z1_W23,C90_Z1,SUFEW022
257,29,Maitripuram Mandir,2,5,2,26.76741,83.39289,75.1522,"Jail ByPass, Maitripuram, Gorakhpur, Uttar Pradesh, 273006, India",M5_J304_Z5_W29,M5_J304,C87_Z1_W22,C87_Z1,SUFEW021
258,22,Shiv Mandir Ramlila Ground,2,1,2,26.76601,83.39686,77.03,"Bichhiya Ram Lila Maidan, PAC Rd, Near PAC Camp, Bichhiya Railway Colony, Gorakhpur, Uttar Pradesh, 273014, India",M5_J342_Z1_W22,M5_J342,C88_Z1_W45,C88_Z1,SUFEW021
259,45,St. Andrews Church,2,1,2,26.76274,83.39127,77.7917,"Railway Stadium Colony, Gorakhpur, Uttar Pradesh, 273012, India",J5032_Z1_W45,J5032_Z1,C4533_Z1_W45,C4533_Z1,SUFEW021
260,45,Dargah Shareef,2,1,2,26.75911,83.38579,78.9957,"Gorakhpur Railway Station, Kawwa Bagh Colony, Gorakhpur, Uttar Pradesh, 273012, India",A­_J4973_Z1_W45,A­_J4973,A_C4471_Z1_W45,A_C4471,GUFEW080
261,22,Hanuman Mandir,2,1,2,26.76786,83.40262,75.3602,"Maitripuram, Air Force Area, Gorakhpur, Uttar Pradesh, 273014, India",M5_J321_Z1_W22,M5_J321,C114_Z1_W23,C114_Z1,SUFEW021
262,19,Sandeep,2,1,2,26.72503,83.3967,72.2521,"Ramghar Tal, Gorakhpur, Uttar Pradesh, 273010, India",T_J4589_Z1_W19,T_J4589,T_C1187_9_Z1_W19,T_C1187,SUFEW019
263,39,Shree Panchdev Hanuman Mandir,2,2,2,26.71247,83.40177,73.4588,"Dewaria ByPass Road, Taramandal Rd, Buddh Vihar Part C, Budh Vihar Colony, Gorakhpur, Uttar Pradesh, 273010, India",T_J4660_Z2_W39,T_J4660,T_C202_3_Z2_W39,T_C202,SUFEW053
264,39,Gaighat Durga Mandir,2,2,2,26.71184,83.39368,73.4863,"Budh Vihar Colony, Pipara, Gorakhpur, Uttar Pradesh, 273010, India",T_J3783_Z2_W37,T_J3783,T_C937_11_Z2_W39,T_C937,GUFEW003
265,39,Shiv And Durga Ma Mandir,2,2,2,26.70922,83.40324,75.313,"Ramgarh Tal, Taramandal Rd, Budh Vihar Colony, Gorakhpur, Uttar Pradesh, 273010, India",T_J105_Z2_W39,T_J105,T_C3078_Z1_W19,T_C3078,SUFEW053
266,39,Shri Govind Gowshala,2,2,2,26.7098,83.40554,73.071,"Budh Vihar Colony, Gaighat Khurd, Uttar Pradesh, 273010, India",T_J4833_Z2_W39,T_J4833,T_C4313_Z1_W19,T_C4313,SUFEW053
267,39,Hanuman Mandir,2,2,2,26.71745,83.39647,74.9408,"Taramandal Rd, Rail Vihar Colony Phase 3rd, Taramandal, Gorakhpur, Uttar Pradesh, 273010, India",T_J4716_Z2_W39,T_J4716,T_C3085_1_Z2_W39,T_C3085,SUFEW019
268,37,Hanuman Mandir,2,2,2,26.72244,83.39026,74.8394,"Rampur, Taramandal Rd, Rail Vihar Colony Phase 3rd, Phase 3rd, Gorakhpur, Uttar Pradesh, 273010, India",T_J6262_Z2_W37,T_J6262,T_C204_5_Z2_W37,T_C204,SUFEW019
269,75,Kajakpur Kali Mandir,2,2,2,26.71816,83.37959,75.3458,"Kajakpur Rd, Budh Vihar Colony, Bagrano, Gorakhpur, Uttar Pradesh, 273010, India",T_J6230_Z2_W11,T_J6230,T_C939_4_Z2_W37,T_C939,SUFEW056
270,37,Durga Mata Mandir,2,2,2,26.71807,83.38946,74.1022,"Budh Vihar Colony, Bagrano, Uttar Pradesh, 273010, India",T_J3779_Z2_W37,T_J3779,T_C1062_4_Z2_W39,T_C1062,GUFEW003
271,37,Shiv Temple,2,2,2,26.72245,83.39003,74.1572,"Budh Vihar Colony, Bharwalia Buzurg, Gorakhpur, Uttar Pradesh, 273010, India",T_J6262_Z2_W37,T_J6262,T_C204_5_Z2_W37,T_C204,SUFEW019
272,37,Durga Mandir,2,2,2,26.7167,83.39154,73.9984,"Budh Vihar Colony, Gorakhpur, Uttar Pradesh, 273010, India",T_J3779_Z2_W37,T_J3779,T_C1062_4_Z2_W39,T_C1062,GUFEW003
273,11,Bamanti Mata Mandir,2,2,2,26.71316,83.37249,74.7055,"Badgon, Gorakhpur, Uttar Pradesh, 273010, India",T_J6220_Z2_W11,T_J6220,T_C1061_1_Z2_W11,T_C1061,SUFEW056
274,11,Samay Mata Mandir......Badgo..Yadav Colony......Gorakhpur,2,2,2,26.71518,83.37387,74.4787,"Badgon, Gorakhpur, Uttar Pradesh, 273010, India",T_J6220_Z2_W11,T_J6220,T_C1061_1_Z2_W11,T_C1061,SUFEW056
275,11,Badgo Durga Temple,2,2,2,26.71227,83.37343,74.897,"Unnamed Road, Badgon, Gorakhpur, Uttar Pradesh, 273010, India",T_J6220_Z2_W11,T_J6220,T_C1061_1_Z2_W11,T_C1061,SUFEW056
276,11,Zohra Masjid,2,2,2,26.71728,83.37175,74.4365,"Unnamed Road, Shakti Nagar Colony, Gorakhpur, Uttar Pradesh, 273010, India",T_J4425_Z2_W11,T_J4425,T_C1061_1_Z2_W11,T_C1061,SUFEW056
277,51,Bagiya Mata Mandir,2,2,2,26.71872,83.36043,74.6956,"Road Kathwatiya Urf Kathaur, Rajiv Nagar Colony, Gorakhpur, Uttar Pradesh, 273010, India",T_J6241_Z2_W51,T_J6241,C264_Z2_W51,C264_Z2,GUFEW046
278,51,"Khirwaniya Shree Hanuman, Durga Ji Mandir",2,2,2,26.71263,83.35962,74.7038,"Rajiv Nagar Colony, Gorakhpur, Betua Urf Chanau, Uttar Pradesh, 273010, India",J375_Z2_W51,J375_Z2,C295_4_Z2_W51,C295_4,GUFEW046
279,51,Narmadeshwar Shiv Mandir,2,2,2,26.71763,83.35783,76.772,"Rajiv Nagar Colony, Gorakhpur, Uttar Pradesh, 273010, India",J375_Z2_W51,J375_Z2,C295_3_Z2_W51,C295_3,GUFEW046
280,51,Bagiya Mata Mandir,2,2,2,26.71607,83.35756,78.572,"Lahsari, Bandha, Rajiv Nagar Colony, Gorakhpur, Uttar Pradesh, 273016, India",J375_Z2_W51,J375_Z2,C295_3_Z2_W51,C295_3,GUFEW046
281,51,Kali Mandir,2,2,2,26.71943,83.36162,74.7005,"Unnamed Road, Rajiv Nagar Colony, Gorakhpur, Uttar Pradesh, 273010, India",T_J6241_Z2_W51,T_J6241,C264_Z2_W51,C264_Z2,GUFEW046
282,24,Nausar Bagiya Durga Mata Mandir,2,2,2,26.71994,83.3352,75.0252,"Nauwa Awwal, Uttar Pradesh, 273016, India",N_J6430_Z2_W24,N_J6430,N_C4868_14_Z2_W24,N_C4868,SUFEW041
283,24,Badi Mata Mandir,2,2,2,26.72934,83.33573,75.8468,"Gorakhpur, Uttar Pradesh, 273016, India",N_J6335_Z2_W24,N_J6335,N_C4860_2_Z2_W24,N_C4860,SUFEW041
284,24,Kali Mandir Nausad GKP,2,2,2,26.72985,83.33559,76.0367,"Gorakhpur, Uttar Pradesh, 273016, India",N_J6335_Z2_W24,N_J6335,N_C4860_Z2_W24,N_C4860,SUFEW041
285,24,Kali Mata Mandir Bariya Tola Nausad,2,2,2,26.7194,83.34249,75.5996,"Unnamed Road, Uttar Pradesh, 273016, India",J375_Z2_W51,J375_Z2,C295_3_Z2_W51,C295_3,SUFEW041
286,38,Aghor Peeth Ashram Gorkhpur,2,2,2,26.73181,83.35538,74.9182,"NH 28, Amrud Mandi, Gorakhpur, Uttar Pradesh, 273016, India",T_J3874_Z2_W38,T_J3874,T_C3120_Z2_W38,T_C3120,SUFEW041
287,38,Mukteshwar Nath Mandir,2,2,2,26.73415,83.3545,75.6059,"Transport Nagar, Gorakhpur, Uttar Pradesh, 273005, India",T_J3874_Z2_W38,T_J3874,T_C3119_Z2_W38,T_C3119,SUFEW041
288,38,Anand Bhawan,2,2,2,26.73296,83.36535,74.8756,"Shivpuri Colony, Mahuesugharpur, Transport Nagar, Gorakhpur, Uttar Pradesh, 273010, India",T_J1376_Z2_W26,T_J1376,T_C780_Z2_W75,T_C780,GUFEW014
289,32,Mubarak Khan Shaheed Mazaar,2,2,2,26.73828,83.36153,76.0706,"Raiganj, Gorakhpur, Uttar Pradesh, 273001, India",A_J3950_Z2_W32,A_J3950,A_C3043_1_Z3_W65,A_C3043,SUFEW020
290,69,Prachin Shiv Mandir Turkmanpur,2,2,2,26.73904,83.35775,76.6633,"Turakmanpur, TP Nagar, Basantpur, Gorakhpur, Uttar Pradesh, 273005, India",A_J6525_Z2_W32,A_J6525,A_C352_1_Z2_W32,A_C352,GUFEW018
291,70,Bagha Baba Mandir,2,2,2,26.72448,83.37405,74.9153,"Azad Nagar, Gorakhpur, Uttar Pradesh, 273010, India",T_J394_Z2_W75,T_J394,T_C349_2_Z2_W75,T_C349,SUFEW056
292,75,Bagaha Baba/durga Mandir,2,2,2,26.72454,83.3741,74.9629,"Gorakhpur, Azad Nagar, Gorakhpur, Uttar Pradesh, 273010, India",T_J394_Z2_W75,T_J394,T_C349_2_Z2_W75,T_C349,SUFEW056
293,70,Noor Jama Masjid,2,2,2,26.72787,83.37741,74.3322,"92j, Chilmapur Road, Azad Nagar, Gorakhpur, Uttar Pradesh, 273010, India",T_J1839_Z2_W70,T_J1839,T_C1048_Z2_W37,T_C1048,GUFEW022
294,75,Ptel Chok,2,2,2,26.72317,83.37221,74.9605,"Mahuesugharpur, Shakti Nagar Colony, Gorakhpur, Uttar Pradesh, 273010, India",T_J6217_Z2_W75,T_J6217,T_C3806_3_Z2_W75,T_C3806,GUFEW036
295,26,Masjid Roostampur Dhala,2,2,2,26.73287,83.36782,75.0834,"Durga Mandir Rd, Mahuesugharpur, Transport Nagar, Gorakhpur, Uttar Pradesh, 273010, India",T_J1467_Z2_W70,T_J1467,T_C858_Z2_W75,T_C858,GUFEW014
296,70,"Sankat Mochan Mandir, Sanidev",2,2,2,26.7347,83.37614,73.841,"Taramandal Road, Near LIC Building, Azad Nagar East, Mahuesugharpur, Azad Nagar, Gorakhpur, Uttar Pradesh, 273010, India",T_J6263_Z2_W70,T_J6263,T_C3089_2_Z2_W70,T_C3089,SUFEW024
297,56,Hanuman Temple,2,2,2,26.73557,83.37883,73.8828,"1, Deoria ByPass Rd, Buddh Vihar Part A, Taramandal, Gorakhpur, Uttar Pradesh, 273010, India",T_J4590_Z2_W70,T_J4590,T_C3987_Z1_W19,T_C3987,GUFEW041
298,65,Daudpur Kali Mandir,2,2,2,26.74204,83.37191,74.7783,"Daudpur Road, H.P. Dubey Rd, Daudpur, Gorakhpur, Uttar Pradesh, 273001, India",A_J4064_Z2_W26,A_J4064,A_C66_3_Z2_W26,A_C66,SUFEW017
299,56,ISKCON Gorakhpur,2,2,2,26.73511,83.38247,73.5414,"50, Buddh Vihar Part A, Indira Nagar, Gorakhpur, Uttar Pradesh, 273010, India",T_J4538_Z2_W70,T_J4538,T_C3989_Z1_W19,T_C3989,GUFEW041
300,72,Gautam Buddha Dwar Taramandal Gorakhpur,2,3,2,26.74383,83.38547,76.0814,"Taramandal, Gorakhpur, Uttar Pradesh, 273010, India",T_J3756_Z2_W56,T_J3756,T_C3081_Z2_W56,T_C3081,GUFEW012
301,56,Bhudwa Baba Mandir,2,2,2,26.73411,83.38514,73.8714,"Rail Vihar Colony Phase 3rd, Taramandal, Gorakhpur, Uttar Pradesh, 273010, India",T_B_J3243_Z2_W56,T_B,T_B_C2517_Z1_W19,T_B,GUFEW012
302,72,Kali Mandir,2,3,2,26.74884,83.38724,73.6473,"Paidleganj, Gorakhpur, Uttar Pradesh, 273009, India",A_J4992_Z3_W72,A_J4992,A_C4494_Z3_W72,A_C4494,GUFEW080
303,72,Paidleganj,2,3,2,26.74706,83.38511,76.8027,"Gorakhpur, Uttar Pradesh, 273009, India",A_J4994_Z3_W72,A_J4994,A_C4494_Z3_W72,A_C4494,GUFEW080
304,72,"Masjid Bilal, University Devariya By Pass",2,3,2,26.75128,83.38726,76.8262,"Sh1, Kawwa Bagh Colony, Gorakhpur, Uttar Pradesh, 273009, India",A_J4988_Z3_W72,A_J4988,A_C53_9_Z3_W72,A_C53,GUFEW080
305,72,Masjid Railway,2,3,2,26.75122,83.38944,76.5774,"Sh1, Railway Stadium Colony, Gorakhpur, Uttar Pradesh, 273009, India",A_J5002_Z3_W72,A_J5002,A_C13_3_Z1_W67,A_C13,GUFEW080
306,52,Golghar Kali Mandir,2,3,2,26.75597,83.37281,77.3821,"Bashratpur, Gorakhpur, Uttar Pradesh, 273001, India",A_J4167_Z3_W48,A_J4167,A_C2926_2_Z3_W52,A_C2926,GUFEW039
307,52,Shri Shri MahaRani Hatti Mata Mandir,2,3,2,26.74983,83.36591,77.3362,"Hatthi Maa Asthan, Maya Bazar, Miyan Baza, Gorakhpur, Uttar Pradesh, 273001, India",A_J3622_Z3_W62,A_J3622,A_C3139_Z3_W62,A_C3139,GUFEW004
308,79,Shri Gandhi Ashram Gorakhpur,2,3,2,26.75185,83.3704,77.5729,"Marina Gali, Golghar, Gorakhpur, Uttar Pradesh, 273001, India",A_J3639_Z3_W79,A_J3639,A_C2963_1_Z3_W62,A_C2963,GUFEW039
309,79,Hazaripur Hanuman Temple,2,3,2,26.75863,83.37423,76.7841,"Hazaripur, Near Alinagar, Alinagar, Arya Nagar, Bilandpur, Gorakhpur, Uttar Pradesh, 273001, India",J3489_Z3_W48,J3489_Z3,C2914_Z3_W48,C2914_Z3,SUFEW040
310,79,Bharat Sevashram Sangha,2,2,2,26.74293,83.3743,74.5531,"C18, Kasia Road, Swami Pranvanandi Ji Marg, Behind Cantt Thana, Daudpur, Gorakhpur, Uttar Pradesh, 273001, India",A_J3917_Z2_W26,A_J3917,A_C65_2_Z2_W26,A_C65,SUFEW001
311,63,Hanuman Temple,2,2,2,26.73744,83.36647,75.825,"Hanuman Mandir, 142A, Betiahata Rd, Betiahata, Gorakhpur, Uttar Pradesh, 273001, India",A_J3882_Z2_W26,A_J3882,A_C3130_Z2_W26,A_C3130,GUFEW007
312,26,Mangla Devi Mandir,2,2,2,26.73765,83.36717,75.7245,"12, H.P. Dubey Rd, Betiahata, Gorakhpur, Uttar Pradesh, 273001, India",A_J3887_Z2_W26,A_J3887,A_C3129_Z2_W26,A_C3129,GUFEW007
313,26,Shiv Mandir Betihata,2,2,2,26.74176,83.36766,76.3008,"20/6 Allahdadpur Gyanendra Nagar, Avas KAS Colony, Gorakhpur, Uttar Pradesh, 273001, India",A_J3788_Z2_W26,A_J3788,A_C3121_2_Z2_W26,A_C3121,SUFEW017
314,63,Maqbara Masjid,2,3,2,26.74419,83.36388,76.4136,"Bankatichak, Gorakhpur, Uttar Pradesh, 273001, India",A_J3909_Z3_W65,A_J3909,A_C56_12_Z3_W65,A_C56,SUFEW058
315,65,Choti Masjid,2,3,2,26.74274,83.36437,75.9951,"H.No. 36, Mohalla Bankatichak, Verma Colony, Qazipur Khurd, Gorakhpur, Uttar Pradesh, 273001, India",J173_Z3_W65,J173_Z3,A_C3191_3_Z3_W65,A_C3191,SUFEW058
316,44,Sultan Khan Mosque,2,2,2,26.74014,83.35612,76.0196,"Turakmanpur, TP Nagar, Basantpur, Gorakhpur, Uttar Pradesh, 273005, India",A_M4_J276_Z2_W69,A_M4,A_C60_4_Z2_W32,A_C60,GUFEW018
317,57,Narmal Masjid,2,2,2,26.74052,83.35974,75.798,"Near Normal Police Chowki, TP Nagar, Raiganj, Gorakhpur, Uttar Pradesh, 273005, India",A_J407_Z3_W57,A_J407,A_C352_4_Z3_W65,A_C352,GUFEW017
318,69,Rajghat,2,2,2,26.73408,83.34642,75.3197,"Gorakhpur, Uttar Pradesh, 273016, India",N_J6322_Z2_W69,N_J6322,C294_Z2_W24,C294_Z2,SUFEW032
319,44,Basantpur Masjid,2,2,2,26.74148,83.3536,77.1802,"Unnamed Road, TP Nagar, Basantpur, Gorakhpur, Uttar Pradesh, 273005, India",A_J1207_Z2_W44,A_J1207,A_C671_1_Z2_W44,A_C671,SUFEW039
320,44,Ram Janki Mandir,2,2,2,26.74151,83.35241,77.1269,"Takiya Ghaat Road, TP Nagar, Basantpur, Gorakhpur, Uttar Pradesh, 273005, India",A_J6520_Z2_W69,A_J6520,A_C283_2_Z2_W44,A_C283,SUFEW038
321,77,Sangi Mosque Markaz,2,2,2,26.74515,83.35279,78.3539,"TP Nagar, Bichhia, Gorakhpur, Uttar Pradesh, 273005, India",A_J6509_Z2_W44,A_J6509,A_C276_Z2_W44,A_C276,SUFEW038
322,77,Halsiganj Masjid,2,2,2,26.74395,83.35517,77.4739,"TP Nagar, Basantpur, Gorakhpur, Uttar Pradesh, 273005, India",A_J1205_Z2_W77,A_J1205,A_C669_1_Z2_W32,A_C669,SUFEW038
323,76,Madina Masjid,2,3,2,26.74722,83.35927,76.1421,"Reti Chowk, Qazipur Khurd, Gorakhpur, Uttar Pradesh, 273001, India",J110_Z3_W76,J110_Z3,A_C1849_2_Z3_W65,A_C1849,GUFEW004
324,61,Belali Masjid,2,3,2,26.75096,83.35413,77.2831,"74/a Rahamatnager, Near Islamic School, Bade Kajipur, Sahibganj, Gorakhpur, Uttar Pradesh, 273005, India",A_J4215_Z3_W73,A_J4215,A_C3582_Z3_W73,A_C3582,SUFEW028
325,61,"Ismailpur Shiv Mandir, Gorakhpur",2,3,2,26.75152,83.35671,76.822,"Shiv Mandir, Bade Kajipur, Ismailpur, Uttar Pradesh, 273005, India",A_J3570_Z3_W61,A_J3570,A_C2891_Z3_W61,A_C2891,GUFEW074
326,63,Harman Masjid,2,3,2,26.74326,83.36007,76.7656,"Raiganj, Gorakhpur, Uttar Pradesh, 273001, India",A_J4071_Z3_W57,A_J4071,A_C3185_2_Z3_W57,A_C3185,SUFEW058
327,63,Peerzada Masjid,2,2,2,26.74535,83.3636,76.7139,"Qazipur Khurd, Gorakhpur, Uttar Pradesh, 273001, India",A_J3910_Z2_W63,A_J3910,A_C56_1_Z2_W63,A_C56,SUFEW058
328,76,Prachin Kali Mandir,2,3,2,26.75197,83.36099,77.5194,"Aarya Kanya Inter College, Mall Hospital, Buxipur Rd, Miyan Baza, Gorakhpur, Uttar Pradesh, 273001, India",A_J3519_Z3_W61,A_J3519,A_C2845_Z3_W76,A_C2845,SUFEW007
329,76,Maya Bazar Kali Mandir,2,3,2,26.752,83.36103,77.4249,"Prachin Kali Mandir, 219 Buxipur Maya Bazar, Buxipur Rd, Miyan Baza, Gorakhpur, Uttar Pradesh, 273001, India",A_J3519_Z3_W61,A_J3519,A_C2845_Z3_W76,A_C2845,SUFEW007
330,61,"Rahmat Nagar Jama Masjid, Rahmat Nagar, Gorakhpur",2,3,2,26.75226,83.35316,77.3102,"Unnamed Road, Rahmat Nagar, Gorakhpur, Uttar Pradesh, 273005, India",A_J4093_Z3_W73,A_J4093,A_C3574_Z3_W73,A_C3574,GUFEW016
331,33,Baba Chain Singh Mandir,2,3,2,26.75236,83.34766,75.537,"Hasanganj, Gorakhpur, Uttar Pradesh, 273005, India",D_J2397_Z3_W33,D_J2397,D_C23_Z3_W33,D_C23,SUFEW027
332,33,"Ghasikatra Durga Mandir, Durga & Lakshmi Puja Samiti",2,3,2,26.75482,83.35268,76.2893,"Unnamed Road, Rahmat Nagar, Gorakhpur, Uttar Pradesh, 273005, India",D_J3561_Z3_W33,D_J3561,C61_Z3_W61,C61_Z3,GUFEW016
333,61,Khokhar Tola Masjid,2,3,2,26.75421,83.35483,76.4872,"Khokhar Tola, Rahmat Nagar, Gorakhpur, Uttar Pradesh, 273005, India",J178_Z3_W61,J178_Z3,C57_1_Z3_W61,C57_1,GUFEW074
334,49,Ghazi Masjid,2,3,2,26.75516,83.35542,76.8094,"Dr. Aziz Hospital Road, Ghazi Rauza, Bade Kajipur, Gorakhpur, Uttar Pradesh, 273005, India",J112_Z3_W61,J112_Z3,C53_Z3_W61,C53_Z3,GUFEW074
335,55,"Thakurdwara Mandir Narsinghpur, Gorakhpur",2,3,2,26.75623,83.34612,77.629,"Ilahi Bagh, Gorakhpur, Uttar Pradesh, 273005, India",D_J3311_Z3_W55,D_J3311,D_C2685_Z3_W33,D_C2685,SUFEW025
336,55,Shahi Masjid Ilahibagh,2,3,2,26.7575,83.34617,77.035,"Unnamed Road, Daud Chak Housing Society, Ilahi Bagh, Gorakhpur, Uttar Pradesh, 273005, India",D_J3347_Z3_W55,D_J3347,D_C2691_2_Z3_W55,D_C2691,SUFEW025
337,55,Ilahibagh Masjid,2,3,2,26.75765,83.34539,76.1856,"Unnamed Road, Daud Chak Housing Society, Ilahi Bagh, Gorakhpur, Uttar Pradesh, 273005, India",D_J3339_Z3_W55,D_J3339,D_C2683_Z3_W55,D_C2683,SUFEW025
338,68,Agha Masjid,2,3,2,26.75882,83.34532,76.1946,"Tiwaripur Rd, Ilahi Bagh, Gorakhpur, Uttar Pradesh, 273005, India",D_J2635_Z3_W55,D_J2635,D_C2328_Z3_W55,D_C2328,GUFEW021
339,68,Sufi Hata Masjid,2,3,2,26.76027,83.34709,76.853,"Sufi Ahata Masjid, Ilahi Bagh, Gorakhpur, Uttar Pradesh, 273005, India",D_J68_Z3_W55,D_J68,D_C2549_2_Z3_W55,D_C2549,GUFEW021
340,28,Sant Nirankari Satsang Bhawan,2,4,2,26.76912,83.34621,77.5387,"B93, OverBridge, Near Nirankari Bhawan, Netaji Subas Chandra Bos Nagar Colony, Surajkund Colony, Gorakhpur, Uttar Pradesh, 273015, India",M2_J542_Z4_W58,M2_J542,C168_Z4_W58,C168_Z4,SUFEW009
341,68,"Jafar Colony, Jame Noor Masjid",2,3,2,26.76025,83.33907,74.3441,"Zafar Colony Masjid, Ilahi Bagh, Gorakhpur, Uttar Pradesh, 273005, India",D_J169_Z3_W68,D_J169,D_C1572_Z3_W68,D_C1572,SUFEW026
342,41,Mohanlalpur Masjid,2,4,2,26.76436,83.34126,77.4935,"Jafhar Colony, Mohanlalpur, Gorakhpur, Uttar Pradesh, 273005, India",D_J2601_Z4_W41,D_J2601,D_C1891_Z3_W68,D_C1891,SUFEW003
343,15,Prachin Mansarovar Mandir,2,4,2,26.76665,83.35594,77.4478,"Rasoolpur, Aditya Naga, Rajendra Nagar, Gorakhpur, Uttar Pradesh, 273017, India",M2_J561_Z4_W15,M2_J561,C137_Z4_W28,C137_Z4,SUFEW011
344,15,Durga Baari,2,3,2,26.76285,83.35844,77.591,"Bade Kajipur, Gorakhpur, Uttar Pradesh, 273005, India",J434_Z3_W71,J434_Z3,C2786_Z3_W71,C2786_Z3,SUFEW011
345,15,Jhulelal Temple,2,4,2,26.76794,83.35732,78.4094,"Gorakhnath Bridge, Rasoolpur, Aditya Naga, North Humayunpur, Gorakhpur, Uttar Pradesh, 273017, India",J6143_Z4_W15,J6143_Z4,C132_1_Z4_W28,C132_1,SUFEW011
346,50,Ravi Daas Mandir,2,3,2,26.76433,83.35054,77.0041,"Ilahi Bagh, Gorakhpur, Uttar Pradesh, 273005, India",D_J2753_Z3_W50,D_J2753,D_C284_4_Z3_W68,D_C284,SUFEW004
347,59,"Raza Masjid, Zafrabazar, Kasaitola, Gorakhpur",2,3,2,26.75931,83.35457,76.8117,"Bade Kajipur, Gorakhpur, Uttar Pradesh, 273005, India",J2741_Z3_W59,J2741_Z3,D_C2523_Z3_W59,D_C2523,SUFEW046
348,59,Bind Tola Masjid,2,3,2,26.7598,83.35235,76.7076,"273005, Jaffra Bazar, Ilahi Bagh, Gorakhpur, Uttar Pradesh",D_J3134_Z3_W59,D_J3134,D_C2475_Z3_W59,D_C2475,SUFEW006
349,34,Kali Mandir,2,4,2,26.76448,83.36843,77.443,"Jatepur North, Gorakhpur, Uttar Pradesh, 273017, India",J2128_Z4_W27,J2128_Z4,C1491_Z3_W48,C1491_Z3,SUFEW030
350,71,Shankar Bhawan Sangh Karyalaya,2,3,2,26.76085,83.36076,77.9709,"C138, 276, Alinagar, Bilandpur, Gorakhpur, Uttar Pradesh, 273005, India",J3976_Z3_W71,J3976_Z3,C3298_Z3_W71,C3298_Z3,GUFEW067
351,34,DharamShala Bazar Masjid,2,3,2,26.76097,83.37032,76.8888,"DharamShala Bazar, Bashratpur, Gorakhpur, Uttar Pradesh, 273001, India",J4956_Z3_W48,J4956_Z3,C3382_Z3_W48,C3382_Z3,SUFEW030
352,34,Kali Mandir,2,3,2,26.76193,83.37168,76.8261,"DharamShala Bazar, Bashratpur, Gorakhpur, Uttar Pradesh, 273001, India",J2127_Z3_W48,J2127_Z3,C30_Z3_W48,C30_Z3,SUFEW040
353,34,Bus Stand,2,3,2,26.76041,83.37313,77.3223,"Bashratpur, Gorakhpur, Uttar Pradesh, 273001, India",J6258_Z3_W48,J6258_Z3,C2914_Z3_W48,C2914_Z3,SUFEW040
354,62,Imambara Masjid,2,3,2,26.74971,83.3639,77.3685,"Miyan Baza, Gorakhpur, Uttar Pradesh, 273001, India",A_J3811_Z3_W62,A_J3811,A_C3140_1_Z3_W62,A_C3140,GUFEW004
355,62,"Halsiganj, Urdu Bazar, Masjid",2,2,2,26.74772,83.36411,76.5632,"Reti Chowk Rd, Qazipur Khurd, Gorakhpur, Uttar Pradesh, 273001, India",A_J3820_Z2_W63,A_J3820,A_C3145_Z3_W65,A_C3145,GUFEW004
356,62,Shri Chitragupt Mandir,2,3,2,26.75377,83.3639,76.6157,"Ariya Poram Colony, Miyan Baza, Gorakhpur, Uttar Pradesh, 273001, India",A_J3625_Z3_W52,A_J3625,A_C2950_Z3_W52,A_C2950,SUFEW012
357,49,Kali Mandir,2,3,2,26.75614,83.3597,76.9688,"Diwan Bazar, Bade Kajipur, Gorakhpur, Uttar Pradesh, 273005, India",J3548_Z3_W49,J3548_Z3,C9_Z3_W49,C9_Z3,SUFEW007
358,49,Santoshi Mata Mandir,2,3,2,26.75981,83.35839,78.0422,"Bade Kajipur, Gorakhpur, Uttar Pradesh, 273005, India",J3464_Z3_W71,J3464_Z3,C2860_Z3_W49,C2860_Z3,SUFEW046
359,49,Unchwa Masjid,2,3,2,26.75711,83.35403,75.5994,"Bade Kajipur, Gorakhpur, Uttar Pradesh, 273005, India",A_J3478_Z3_W49,A_J3478,C53_Z3_W61,C53_Z3,SUFEW006
360,17,Amina Nagar Masjid,2,1,2,26.77885,83.41594,77.373,"Jungle Tinkonia No-1, Amina Nagar Rd, Amina Nagar, Vishwakarmapuram, Gorakhpur, Uttar Pradesh, 273014, India",J6082_Z1_W35,J6082_Z1,C127_Z1_W17,C127_Z1,SUFEW015
361,21,Anmol House,2,1,2,26.77399,83.41946,79.3371,"Vishwakarmapuram, Jangl Hakeem No2, Gorakhpur, Uttar Pradesh, 273014, India",J6083_Z1_W35,J6083_Z1,C127_Z1_W17,C127_Z1,SUFEW015
362,21,Yadav Parivar Kul Devta Ka Mandir,2,1,2,26.77248,83.41703,79.7773,"Vishwakarmapuram, Jangl Hakeem No2, Uttar Pradesh, 273014, India",M5_J330_Z1_W23,M5_J330,C114_Z1_W23,C114_Z1,SUFEW015
363,21,Sadhu Ki Kuti,2,1,2,26.77075,83.41838,76.7889,"Jungle Hakeem No 2, Saraswati Puram, Gorakhpur, Uttar Pradesh, 273014, India",M5_J330_Z1_W23,M5_J330,C114_Z1_W23,C114_Z1,SUFEW015
364,21,Oba Mata Mandir,2,1,2,26.7727,83.41642,79.1679,"Vishwakarmapuram, Jangl Hakeem No2, Gorakhpur, Uttar Pradesh, 273014, India",M5_J330_Z1_W23,M5_J330,C114_Z1_W23,C114_Z1,SUFEW015
365,17,St. Mark's Church C.N.I,2,1,2,26.7788,83.4092,76.5545,"Sardar Patel Marg, Padri Bazar, Vishwakarmapuram, Gorakhpur, Uttar Pradesh, 273014, India",J6076_Z1_W17,J6076_Z1,C131_Z1_W35,C131_Z1,SUFEW015
366,17,Surajkund Mandir,2,1,2,26.77186,83.40966,78.4286,"Saraswati Puram, Bhuhar, Gorakhpur, Uttar Pradesh, 273014, India",M5_J330_Z1_W23,M5_J330,C114_Z1_W23,C114_Z1,SUFEW015
367,17,Sri Sri RamJanki Mandir,2,1,2,26.77356,83.40067,75.6991,"349D, Saraswati Puram Colony Rd, Saraswati Puram, Gorakhpur, Uttar Pradesh, 273014, India",J202_Z1_W22,J202_Z1,C109_Z1_W17,C109_Z1,SUFEW015
368,17,Kashipuram Durga Mandir,2,1,2,26.77025,83.40458,74.1712,"Kashi Puram, Bichhiya Railway Colony, Gorakhpur, Uttar Pradesh, 273014, India",J219_Z1_W22,J219_Z1,C114_Z1_W23,C114_Z1,SUFEW015
369,64,Geeta Vatika Temple,2,5,2,26.77145,83.38642,78.5601,"Geeta Vatika Rd, Shahpur, Gorakhpur, Uttar Pradesh, 273006, India",J6005_Z5_W43,J6005_Z5,C82_12_Z5_W29,C82_12,GUFEW057
370,64,Gita Vatika,2,5,2,26.77144,83.38646,78.5581,"Shahpur, Gorakhpur, Uttar Pradesh, 273006, India",J6005_Z5_W43,J6005_Z5,C82_12_Z5_W29,C82_12,GUFEW057
371,40,Vishnu Mandir,2,5,2,26.7702,83.38076,82.371,"Ashok Nagar, Gorakhpur, Uttar Pradesh, 273004, India",J339_Z5_W64,J339_Z5,C191_5_Z5_W64,C191_5,SUFEW033
372,43,Abhi Grahak Seva Kendra,2,5,2,26.77143,83.38647,78.559,"15 Geeta Vatika, Shahpur, Gorakhpur, Uttar Pradesh, 273006, India",J6005_Z5_W43,J6005_Z5,C82_12_Z5_W29,C82_12,GUFEW057
373,35,"Hanuman Mandir, Hanumant Nagar",2,1,2,26.78719,83.41473,78.8542,"Padri Bazarjangl Dhoosar Uttar Pradesh Republic Of, Gorakhpur, Uttar Pradesh, 273014, India",J6083_Z1_W35,J6083_Z1,C127_Z1_W17,C127_Z1,SUFEW015
374,35,Bhagatpurwa Shiv Mandir,2,1,2,26.78547,83.40739,78.5308,"Manas Vihar Colony, Gorakhpur, Uttar Pradesh, 273014, India",J6077_Z1_W17,J6077_Z1,C129_Z1_W35,C129_Z1,SUFEW015
375,31,Nageshwar Mandir,2,1,2,26.7902,83.40375,78.1722,"Unnamed Road, Shatabdipuram, Gorakhpur, Uttar Pradesh, 273014, India",J298_Z1_W35,J298_Z1,C313_1_Z1_W35,C313_1,SUFEW015
376,46,NeelKanth MahaDev Temple,2,1,2,26.78606,83.39828,78.1548,"Unnamed Road, Chorpurwa, Hussain Nagar, Gorakhpur, Uttar Pradesh, 273014, India",J317_Z1_W35,J317_Z1,C322_Z1_W35,C322_Z1,GUFEW059
377,35,Mohammad Nagar Colony Masjid,2,1,2,26.78356,83.41387,77.7448,"Vishwakarmapuram, Gorakhpur, Uttar Pradesh, 273014, India",J6082_Z1_W35,J6082_Z1,C127_Z1_W17,C127_Z1,SUFEW015
378,2,Harsewakpur Kabrishtan,2,5,2,26.79833,83.40564,78.1515,"Harsewakpur No.2, Uttar Pradesh, 273014, India",M3_J491_Z5_W31,M3_J491,C71_Z5_W31,C71_Z5,GUFEW059
379,2,Sai Mandir,2,5,2,26.79829,83.40056,77.3131,"Railvihar Ph-2 Colony, Semra, Railvihar Ph-2 Colony, Raptinagar Phase -4, Gorakhpur, Uttar Pradesh, 273014, India",M3_J511_Z5_W2,M3_J511,C72_Z5_W31,C72_Z5,GUFEW059
380,31,New Life AG Church,2,5,2,26.79552,83.40916,78.3848,"Gorakhpur, Harsewakpur No.2, Uttar Pradesh, 273014, India",M3_J491_Z5_W31,M3_J491,C70_Z5_W31,C70_Z5,GUFEW059
381,31,Prajapati Chauk,2,5,2,26.7966,83.41137,78.4715,"Harsewakpur No.2, Uttar Pradesh, 273014, India",M3_J67_Z5_W31,M3_J67,C69_Z5_W31,C69_Z5,SUFEW015
382,8,St. Paul's Church And School,2,5,2,26.80532,83.39579,79.039,"Mughala, Gorakhpur, Uttar Pradesh, 273014, India",J234_Z5_W2,J234_Z5,C276_1_Z5_W2,C276_1,GUFEW073
383,5,Moglaha Masjid,2,5,2,26.81103,83.39523,78.8537,"Chargawa, Gorakhpur, Uttar Pradesh, 273004, India",J226_Z5_W2,J226_Z5,C278_Z5_W2,C278_Z5,GUFEW073
384,2,Durga Mandir Jagriti Nagar Colony,2,5,2,26.7959,83.39608,77.8551,"Jagriti Nagar Colony, Jagriti Nagar, Railvihar Ph-2 Colony, Raptinagar Phase -4, Harsewakpur No.2, Uttar Pradesh, 273014, India",M3_J175_Z1_W35,M3_J175,C650_1_Z5_W31,C650_1,GUFEW059
385,5,Masjid,2,5,2,26.81739,83.38942,78.2188,"Fertilizer Colony, Gorakhpur, Uttar Pradesh, 273013, India",J6391_Z5_W5,J6391_Z5,C5679_Z5_W5,C5679_Z5,GUFEW073
386,5,Shiv Mandir Khass Majbela,2,5,2,26.81742,83.38774,79.1594,"Fertilizer Colony, Gorakhpur, Uttar Pradesh, 273013, India",J6362_Z5_W5,J6362_Z5,C5679_Z5_W5,C5679_Z5,GUFEW073
387,5,Luxmi Temple,2,5,2,26.81599,83.38756,78.543,"Fertilizer Colony, Gorakhpur, Uttar Pradesh, 273013, India",J6362_Z5_W5,J6362_Z5,C5676_Z5_W5,C5676_Z5,GUFEW073
388,5,Noori Jama Masjid,2,5,2,26.8172,83.38707,79.5861,"Manbela Khas Ward 4 Jhungiya, Bazar, Fertilizer Rd, Fertilizer Colony, Gorakhpur, Uttar Pradesh, 273013, India",J6362_Z5_W5,J6362_Z5,C5676_Z5_W5,C5676_Z5,GUFEW073
389,30,Ummarpur (shiv Mandir),2,5,2,26.82712,83.40164,78.6627,"Ummarpur, Uttar Pradesh, 273013, India",J6158_Z5_W30,J6158_Z5,C229_Z5_W30,C229_Z5,GUFEW073
390,30,Ummarpur Temple,2,5,2,26.82807,83.39822,78.9181,"Narainpur No.1, Uttar Pradesh, 273013, India",J6159_Z5_W30,J6159_Z5,C230_Z5_W30,C230_Z5,GUFEW073
391,30,Umarpur Mosque,2,5,2,26.82672,83.39732,80.681,"Unnamed Road, Narainpur No.1, Uttar Pradesh, 273013, India",J6395_Z5_W30,J6395_Z5,C231_2_Z5_W5,C231_2,GUFEW073
392,30,Bagaha Baba,2,5,2,26.82402,83.40203,79.2072,"Gularahia, Jungle Dhusan, Uttar Pradesh, 273013, India",J6159_Z5_W30,J6159_Z5,C230_Z5_W30,C230_Z5,GUFEW073
393,30,Hanuman Temple,2,5,2,26.82207,83.4061,80.0671,"Gularahia, Jungle Dhusan, Gorakhpur, Uttar Pradesh, 273013, India",J6158_Z5_W30,J6158_Z5,C5685_Z5_W30,C5685_Z5,GUFEW073
394,8,Harsewakpur Durga Mandir,2,5,2,26.80022,83.38411,78.959,"Harsewakpur, No 1, Railvihar Ph-2 Colony, Rapti Nagar Phase-4, Gorakhpur, Uttar Pradesh, 273004, India",J265_Z5_W80,J265_Z5,C177_Z5_W8,C177_Z5,GUFEW073
395,8,Hamidulla Nagar Masjid,2,5,2,26.80246,83.3784,77.9641,"Hamidullah Nagar Colony, Gorakhpur, Uttar Pradesh, 273004, India",J341_Z5_W8,J341_Z5,C37_16_Z5_W8,C37_16,GUFEW073
396,8,Tawan Mata Mandir,2,5,2,26.7969,83.38615,79.036,"Unnamed Road, Railvihar Ph-2 Colony, 273004, Railvihar Ph-2 Colony, Anand Vihar, Gorakhpur, Uttar Pradesh",J553_Z5_W80,J553_Z5,C265_Z5_W8,C265_Z5,GUFEW058
397,8,Apostolic Christian Assembly,2,5,2,26.80542,83.38373,79.1945,"Sport College Rd, Karim Nagar, Chargawa, Gorakhpur, Uttar Pradesh, 273004, India",J6375_Z5_W8,J6375_Z5,C37_5_Z5_W8,C37_5,GUFEW073
398,54,Fertilizer Mosque,2,5,2,26.81539,83.37012,79.0095,"Fertilizer Colony, Gorakhpur, Uttar Pradesh, 273004, India",J6331_Z4_W60,J6331_Z4,C5665_Z5_W54,C5665_Z5,GUFEW073
399,54,Kali Mandir,2,5,2,26.81214,83.36852,78.6173,"Fertilizer Colony, Gorakhpur, Uttar Pradesh, 273004, India",J6331_Z4_W60,J6331_Z4,C5665_Z5_W54,C5665_Z5,GUFEW073
400,54,Shiv Temple,2,5,2,26.80795,83.36939,78.4382,"Fertilizer Colony, Gorakhpur, Uttar Pradesh, 273004, India",J6344_Z4_W60,J6344_Z4,C5666_1_Z5_W54,C5666_1,GUFEW065
401,54,"Kali Mata Temple, Bichaupur",2,5,2,26.80801,83.37023,78.8345,"Fertilizer Colony, Gorakhpur, Uttar Pradesh, 273004, India",J6333_Z4_W60,J6333_Z4,C5667_Z5_W54,C5667_Z5,GUFEW065
402,54,Ravidas Mandir,2,5,2,26.81921,83.37438,78.921,"Fertilizer Colony, Gorakhpur, Uttar Pradesh, 273007, India",J6380_Z5_W8,J6380_Z5,C37_8_Z5_W8,C37_8,GUFEW073
403,13,Kali Mandir,2,4,2,26.81433,83.34938,78.9409,"Vistar Nagar, Bargadwa, Gorakhpur, Uttar Pradesh, 273007, India",RS_J4943_Z4_W10,RS_J4943,RS_C110_19_Z4_W13,RS_C110,GUFEW013/28
404,10,Sri Krishna Pranami Mandir,2,4,2,26.81731,83.35237,78.8354,"Shyamnagar, Moharipur, Gorakhpur, Uttar Pradesh, 273007, India",RS_J4848_Z4_W10,RS_J4848,RS_C107_8_Z4_W10,RS_C107,GUFEW013/28
405,10,Moharipur Masjid,2,4,2,26.81507,83.35095,79.3557,"Moharipur, Gorakhpur, Uttar Pradesh, 273007, India",RS_J4934_Z4_W10,RS_J4934,RS_C107_4_Z4_W10,RS_C107,GUFEW013/28
406,10,Dih Baba Ji Ka Sthan,2,4,2,26.81451,83.35139,78.5259,"Moharipur, Gorakhpur, Uttar Pradesh, 273007, India",RS_J4926_Z4_W10,RS_J4926,RS_C107_4_Z4_W10,RS_C107,GUFEW013/28
407,10,Shiv Temple,2,4,2,26.81586,83.35042,79.3017,"National Highway 29, Moharipur, Nooruddin Chak, Uttar Pradesh, 273007, India",RS_J4945_Z4_W10,RS_J4945,RS_C107_9_Z4_W10,RS_C107,GUFEW013/28
408,13,Sri Krishna Pranami Mandir,2,4,2,26.81565,83.33947,79.3734,"Sanjhai, Uttar Pradesh, 273007, India",RS_J4945_Z4_W10,RS_J4945,RS_C110_5_Z4_W13,RS_C110,GUFEW013/28
409,13,Kaushaleshwar MahaDev,2,4,2,26.81418,83.34163,78.2443,"Baur Deeh, Uttar Pradesh, 273007, India",RS_J4944_Z4_W10,RS_J4944,RS_C110_20_Z4_W13,RS_C110,GUFEW013/28
410,13,Sheikhpurwa Masjid,2,4,2,26.82046,83.33889,79.0396,"Kolua, Gorakhpur, Uttar Pradesh, 273007, India",J147_Z4_W10,J147_Z4,RS_C110_6_Z4_W13,RS_C110,GUFEW013/28
411,13,Moharipur Mandir,2,4,2,26.81448,83.34493,78.8114,"Moharipur, Gorakhpur, Nooruddin Chak, Uttar Pradesh, 273007, India",RS_J4944_Z4_W10,RS_J4944,RS_C110_19_Z4_W13,RS_C110,GUFEW013/28
412,14,Bhati Vihar Temple,2,4,2,26.79277,83.35192,78.4624,"Bhati Vihar, Rajendra Nagar, Gorakhpur, Uttar Pradesh, 273015, India",RS_J5912_Z4_W14,RS_J5912,RS_C128_4_Z4_W14,RS_C128,GUFEW009
413,20,Chirkutaha Baba Mandir,2,4,2,26.78977,83.35684,79.0039,"National Highway 29, Dayanand Nagar, Gorakhpur, Uttar Pradesh, 273015, India",RS_J5609_Z4_W20,RS_J5609,RS_C365_5_Z4_W20,RS_C365,GUFEW062
414,14,Shiv Mandir,2,4,2,26.79579,83.34509,76.0542,"Unnamed Road, Rajendra Nagar, Gorakhpur, Uttar Pradesh, 273015, India",RS_M2_J623_Z4_W14,RS_M2,RS_C171_Z4_W14,RS_C171,GUFEW009
415,14,Gaddu Baba Temple,2,4,2,26.79717,83.34921,77.1052,"1, Dwarikapuri Colony, Bargadwa, Gorakhpur, Uttar Pradesh, 273007, India",RS_M2_J647_Z4_W14,RS_M2,RS_C128_2_Z4_W14,RS_C128,GUFEW009
416,14,Masjid Kulsum Nagar,2,4,2,26.79633,83.35268,78.302,"Kusum Nagar, Road, Bargadwa, Gorakhpur, Uttar Pradesh, 273007, India",RS_J5528_Z4_W14,RS_J5528,RS_C135_8_Z4_W14,RS_C135,GUFEW009
417,74,Shree Gorakhnath Temple,2,4,2,26.7767,83.35756,79.0762,"Gorakhnath Mandir, Rajendra Nagar, Gorakhpur, Uttar Pradesh, 273017, India",J6142_Z4_W78,J6142_Z4,C119_1_Z4_W78,C119_1,SUFEW018
418,74,"Shri Gorakhnath Temple, Gorakhpur",2,4,2,26.77414,83.35783,78.9552,"Gorakhnath Mandir, Rajendra Nagar, Gorakhpur, Uttar Pradesh, 273017, India",J154_Z4_W78,J154_Z4,C118_2_Z4_W78,C118_2,GUFEW037
419,15,Gorakhnath Mandir,2,4,2,26.77393,83.3582,78.8114,"Rajendra Nagar, Gorakhpur, Uttar Pradesh, 273017, India",J156_Z4_W78,J156_Z4,C118_2_Z4_W78,C118_2,GUFEW037
420,16,Gorakhnath Mandir Gate,2,4,2,26.77388,83.35899,79.2759,"6, Gorakhnath, Gorakhpur, Uttar Pradesh, 273017, India",J156_Z4_W78,J156_Z4,C118_2_Z4_W78,C118_2,GUFEW037
421,16,Gorakhnath Temple Pond,2,4,2,26.77331,83.35853,78.56,"Rajendra Nagar, Gorakhpur, Uttar Pradesh, 273017, India",J156_Z4_W78,J156_Z4,C118_4_Z4_W78,C118_4,GUFEW037
422,66,Sankat Mochan Nagar Hanuman Mandir Madhopur Surajkund,2,4,2,26.77119,83.34221,76.63,"Sankat Mochan Nagar, Hanuman Mandir, Sidharipur, Surajkund Colony, Madhopur, Uttar Pradesh, 273015, India",M2_J512_Z4_W66,M2_J512,C157_Z4_W66,C157_Z4,SUFEW035
423,66,Orange Temple,2,4,2,26.77411,83.34269,76.0384,"Netaji Subas Chandra Bose, Netaji Subas Chandra Bos Nagar Colony, Shakti Nagar Colony, Gorakhpur, Uttar Pradesh, 273015, India",J136_Z4_W66,J136_Z4,C156_Z4_W66,C156_Z4,SUFEW035
424,41,GKP,2,4,2,26.76894,83.34414,76.7953,"Surajkund Colony, Gorakhpur, Uttar Pradesh, 273015, India",M1_J8_Z4_W66,M1_J8,C153_1_Z4_W66,C153_1,SUFEW009
425,41,Sankat Mochan Temple,2,4,2,26.76878,83.34282,76.9668,"New Colony Madhopur, Surajkund Colony, Gorakhpur, Uttar Pradesh, 273015, India",M1_J8_Z4_W66,M1_J8,C153_1_Z4_W66,C153_1,SUFEW009
426,58,Teen Talla Masjid,2,4,2,26.77158,83.34928,77.5081,"Netaji Subas Chandra Bos Nagar Colony, Rajendra Nagar, Gorakhpur, Uttar Pradesh, 273015, India",M2_J510_Z4_W58,M2_J510,C144_Z4_W42,C144_Z4,SUFEW034
427,58,Samay Mata Mandir,2,4,2,26.76844,83.34962,77.1894,"Surya Vihar Colony, Netaji Subas Chandra Bos Nagar Colony, Rajendra Nagar, Gorakhpur, Uttar Pradesh, 273015, India",M1_J33_Z4_W28,M1_J33,C162_Z4_W28,C162_Z4,GUFEW019
428,41,Suraj Kund Colony,2,4,2,26.7687,83.34284,76.8998,"New Colony Madhopur, Surajkund Colony, Gorakhpur, Uttar Pradesh, 273015, India",M1_J8_Z4_W66,M1_J8,C153_1_Z4_W66,C153_1,SUFEW009
429,15,Tilakpur,2,4,2,26.77193,83.35857,78.3972,"Rajendra Nagar, Gorakhpur, Uttar Pradesh, 273017, India",J915_Z4_W78,J915_Z4,C118_4_Z4_W78,C118_4,GUFEW037
430,20,Masjid Lacchipur Khas,2,4,2,26.78848,83.36199,78.6648,"Lacchipur Khas, Bhagawti Chauraha, Dayanand Nagar, Gorakhpur, Uttar Pradesh, 273015, India",RS_J481_Z4_W20,RS_J481,RS_C366_9_Z4_W20,RS_C366,GUFEW062
431,20,Tri Ratan Buddha Vihar Mandir,2,4,2,26.78626,83.36398,78.8269,"Unnamed Road, Mirzapur Pachpedwa, Gorakhpur, Uttar Pradesh, 273015, India",RS_J5799_Z4_W20,RS_J5799,RS_C3975_Z4_W20,RS_C3975,GUFEW062
432,20,Shri Rani Sati Dadi Narayani Devi Temple,2,4,2,26.78438,83.36329,79.1872,"Green Valley Apartments, Mirzapur Pachpedwa, Gorakhpur, Uttar Pradesh, 273015, India",J6138_Z4_W20,J6138_Z4,RS_R_C146_1_Z4_W20,RS_R,SUFEW036
433,20,Kali Mandir,2,4,2,26.79232,83.36091,78.9847,"NH 29, Shastri Nagar, Dayanand Nagar, Gorakhpur, Uttar Pradesh, 273007, India",RS_J483_Z4_W20,RS_J483,RS_C366_1_Z4_W20,RS_C366,GUFEW062
434,60,PanchMukhi Hanuman Mandir,2,4,2,26.80315,83.35858,79.1177,"Rambha Kunj, Vistar Colony, Gorakhpur, Uttar Pradesh, 273007, India",RS_J147_Z4_W60,RS_J147,RS_C228_1_Z5_W54,RS_C228,GUFEW013/28
435,60,Bargadva Mandir,2,4,2,26.80417,83.34823,77.9232,"Moharipur Bazar, Bargadwa, Gorakhpur, Uttar Pradesh, 273007, India",J146_Z4_W60,J146_Z4,RS_C109_3_Z4_W14,RS_C109,GUFEW013/28
436,60,Kali Mandir,2,4,2,26.80462,83.35689,79.0903,"MiG 46, Vikas Nagar, Gorakhpur, Uttar Pradesh, 273007, India",RS_J5318_Z4_W60,RS_J5318,RS_C114_2_Z4_W60,RS_C114,GUFEW013/28
437,60,PanchMukhi Hanuman Mandir Bargadwa Vistar Nagar Gorakhpur,2,4,2,26.80326,83.35849,79.0073,"Vikash Nagar, Near PanchMukhi Hanuman Mandir, Rambha Kunj, Vistar, Bargadwa, Gorakhpur, Uttar Pradesh, 273007, India",RS_J147_Z4_W60,RS_J147,RS_C228_1_Z5_W54,RS_C228,GUFEW013/28
438,60,Hanuman Mandir Aakhari Lachipur,2,4,2,26.80143,83.35498,78.3984,"Vistar Colony, Gorakhpur, Uttar Pradesh, 273007, India",RS_J5360_Z4_W60,RS_J5360,RS_C114_4_Z4_W60,RS_C114,GUFEW013/28
439,9,Swami Sadan,2,5,2,26.79234,83.37276,78.4399,"307-H, Indra Prasth Nagar, RamJanki Nagar, Gorakhpur, Uttar Pradesh, 273004, India",M3_J454_Z5_W9,M3_J454,C172_15_Z5_W9,C172_15,GUFEW011
440,9,Nakaha Masjid,2,5,2,26.79424,83.36759,78.8769,"Street Number 1, Nakaha No 1, Gorakhpur, Uttar Pradesh, 273004, India",J6167_Z5_W9,J6167_Z5,C174_3_Z5_W9,C174_3,GUFEW011
441,80,Shri Gangeshwar MahaDev Mandir,2,5,2,26.79246,83.37686,78.7478,"RamJanki Nagar, Gorakhpur, Uttar Pradesh, 273004, India",J6318_Z5_W9,J6318_Z5,C172_17_Z5_W9,C172_17,GUFEW054
442,9,Nakha No1 Maulanagar Sufi Masjid,2,5,2,26.795,83.36591,79.1382,"Ghosipurwa, Gorakhpur, Uttar Pradesh, 273004, India",J6167_Z5_W9,J6167_Z5,RS_C110_9_Z5_W9,RS_C110,GUFEW062
443,9,Samay Mata Mandir,2,4,2,26.78896,83.36745,77.8461,"Nakaha No 1, Basharatpur, RamJanki Nagar, Gorakhpur, Uttar Pradesh, 273004, India",J6399_Z4_W20,J6399_Z4,C231_4_Z5_W9,C231_4,SUFEW052
444,53,Shiv Mandir,2,5,2,26.7862,83.36931,78.7463,"RamJanki Nagar, Gorakhpur, Uttar Pradesh, 273004, India",J6485_Z5_W53,J6485_Z5,RS_C110_9_Z5_W9,RS_C110,GUFEW067
445,53,Ram Janki Mandir,2,5,2,26.7878,83.37459,78.0637,"RamJanki Nagar, Gorakhpur, Uttar Pradesh, 273004, India",J6182_Z5_W53,J6182_Z5,C147_32_Z5_W9,C147_32,SUFEW052
446,40,Full Gospel Church,2,5,2,26.78049,83.37587,78.6875,"Moti Pokhra, Basharatpur West, RamJanki Nagar, Gorakhpur, Uttar Pradesh, 273004, India",J855_Z5_W12,J855_Z5,C110_3_Z5_W12,C110_3,SUFEW031
447,36,Anand Yoga Lane,2,4,2,26.78098,83.36815,79.1378,"Anand Yoga, 640 B, Shiv Nagar Colony, Mirzapur Pachpedwa, Gorakhpur, Uttar Pradesh, 273004, India",M2_J624_Z5_W53,M2_J624,C111_Z4_W74,C111_Z4,GUFEW068
448,36,634 Pragyapath,2,4,2,26.77906,83.36995,77.9406,"Sky 600, Harhwa Fatak Rd, Adarsh Nagar, Mirzapur Pachpedwa, Gorakhpur, Uttar Pradesh, 273004, India",J756_Z4_W36,J756_Z4,C504_10_Z5_W53,C504_10,GUFEW068
449,12,Sisters Of Mary Immaculate,2,5,2,26.77642,83.3813,76.2457,"Bholaji Puram, Basharatpur, Ashok Nagar, Gorakhpur, Uttar Pradesh, 273004, India",J128_Z5_W64,J128_Z5,C220_Z5_W12,C220_Z5,SUFEW044
450,12,Masihi Kalisiya Church,2,5,2,26.77532,83.38231,78.2766,"Ashok Nagar, Gorakhpur, Uttar Pradesh, 273004, India",J6120_Z5_W64,J6120_Z5,C184_4_Z5_W64,C184_4,GUFEW052
451,80,St. John's Church,2,5,2,26.78551,83.38438,80.1586,"Basharatpur, Gorakhpur, Uttar Pradesh, 273004, India",J6108_Z5_W46,J6108_Z5,C178_6_Z5_W12,C178_6,GUFEW069
452,46,Peace Tabernacle Church,2,5,2,26.78232,83.38756,78.2286,"969 Bashratpur East Mayur Vihar Colony, Peace Tabernacle Church Or Dream 273004, India School Nagar Villa, Nagar Villa, Siva Puram, Gorakhpur, Uttar Pradesh",J6059_Z5_W46,J6059_Z5,C98_17_Z5_W46,C98_17,GUFEW069
453,46,Durga Ji Mandir Adityapuri Colony,2,5,2,26.783,83.3938,74.9631,"Adityapuri Colony Uttari, Dharampur - Shahpur Road, Hussain Nagar, Gorakhpur, Uttar Pradesh, 273014, India",J182_Z5_W46,J182_Z5,C102_Z5_W46,C102_Z5,GUFEW059
454,46,Samya Mata Mandir,2,5,2,26.78198,83.39516,78.0288,"Shivpur, Hussain Nagar, Gorakhpur, Uttar Pradesh, 273014, India",M3_J497_Z5_W46,M3_J497,C78_4_Z1_W35,C78_4,SUFEW015
455,80,Laxmi Narayan Mandir,2,5,2,26.78972,83.37954,79.0921,"Chandragupta Nagar, RamJanki Nagar, Gorakhpur, Uttar Pradesh, 273004, India",J787_Z5_W80,J787_Z5,C239_3_Z5_W53,C239_3,GUFEW011
456,80,Gaytri Mandir,2,5,2,26.79387,83.37998,78.6534,"Chetna Factory, Haridwar Puram, Raptinagar, Ganga Tola, Gorakhpur, Uttar Pradesh, 273004, India",J545_Z5_W80,J545_Z5,C265_10_Z5_W9,C265_10,GUFEW054
457,80,"Gayatri Mata Mandir, Haridwar Puram Phase 1",2,5,2,26.79485,83.37933,78.3505,"Ganga Tola, Gorakhpur, Uttar Pradesh, 273004, India",J533_Z5_W80,J533_Z5,C265_12_Z5_W9,C265_12,GUFEW054
458,43,"Geeta Vatika, Bhaiji Hanuman Prasad Poddar Samadhi Mandir",2,5,2,26.7717,83.38528,78.3516,"C-130/532 Shahpur, In Front Of Geeta Vatika S, Shahpur, Gorakhpur, Uttar Pradesh, 273006, India",J6004_Z5_W43,J6004_Z5,C82_11_Z5_W29,C82_11,GUFEW057
459,27,North Humaupur,2,4,2,26.76812,83.36691,77.6688,"132, Lajpat Nagar, North Humayunpur, Gorakhpur, Uttar Pradesh, 273017, India",R_J785_Z4_W27,R_J785,R_C388_42_Z4_W16,R_C388,GUFEW060
460,40,Durga Mandir,2,5,2,26.7713,83.37862,77.8798,"91A, Medical College Road, Vishnu Nagar, Bhediyagarh, Gorakhpur, Uttar Pradesh, 273004, India",J905_Z5_W64,J905_Z5,C255_1_Z5_W34,C255_1,SUFEW033
461,64,Shiv Mandir,2,5,2,26.77201,83.38211,78.9217,"Asuran, Medical College Road, B Colony Shahpur, Gorakhpur, Uttar Pradesh, 273004, India",J365_Z5_W64,J365_Z5,C100_2_Z5_W43,C100_2,SUFEW033
462,36,Kali Mandir,2,5,2,26.77402,83.37483,78.7044,"Krishna Nagar, Krishna Nagar Private Colony, Ashok Nagar, Gorakhpur, Uttar Pradesh, 273004, India",M3_J407_Z5_W40,M3_J407,C186_Z5_W34,C186_Z5,GUFEW010
463,36,Vishnu Mandir,2,4,2,26.77603,83.37269,79.5959,"Krishna Nagar Private Colony, Ashok Nagar, Gorakhpur, Uttar Pradesh, 273004, India",J1156_Z4_W36,J1156_Z4,C180_6_Z5_W40,C180_6,GUFEW010
464,36,Khapde Wali Masjid,2,4,2,26.77623,83.36529,78.9014,"Mirzapur Pachpedwa, Gorakhpur, Uttar Pradesh, 273017, India",J6136_Z4_W78,J6136_Z4,C111_Z4_W74,C111_Z4,GUFEW030
465,3,GD Goenka Public School,3,1,1,26.70761,83.43636,76.4427,"Deoria ByPass Rd, Divya Nagar Vistar, Khorabar, Gorakhpur, Uttar Pradesh, 273010, India",K_J6295_Z1_W3,K_J6295,K_C5153_3_Z1_W6,K_C5153,GUFEW008
466,3,G.M. Academy,3,1,1,26.71071,83.4334,78.1087,"Khorabar, Khorabar Urf Soobabazar, Gorakhpur, Uttar Pradesh, 273010, India",K_J6479_Z1_W3,K_J6479,K_C5906_Z1_W4,K_C5906,GUFEW008
467,3,Kalindi Public School,3,1,1,26.71373,83.43598,77.7645,"Unnamed Road, Khorabar, 273010, Unnamed Road, Khorabar, Gorakhpur, Uttar Pradesh",K_J2340_Z1_W3,K_J2340,K_C5153_4_Z1_W6,K_C5153,GUFEW008
468,6,KidZee Play Way School,3,1,1,26.71024,83.43769,77.9812,"C- 192, Divya Nagar Vistar, Khorabar, Gorakhpur, Uttar Pradesh, 273010, India",K_J6295_Z1_W3,K_J6295,K_C5153_3_Z1_W6,K_C5153,GUFEW008
469,6,Academic Heights Public School,3,1,1,26.70886,83.44248,78.4219,"Jungle Sikri, Deoria ByPass Rd, Beside Little Flower Polytechnic, Khorabar, Gorakhpur, Uttar Pradesh, 273016, India",K_J6292_Z1_W6,K_J6292,K_C5153_1_Z1_W6,K_C5153,SUFEW048
470,4,MMMUT Main Gate,3,1,1,26.72986,83.43148,77.3592,"MMMUT Rd, Singhariya, Kunraghat, Gorakhpur, Uttar Pradesh, 273010, India",K_J6283_Z1_W4,K_J6283,K_C4862_2_Z1_W4,K_C4862,GUFEW078
471,4,Madan Mohan Malaviya University Of Technology,3,1,1,26.73143,83.43313,77.5708,"Deoria Road, Singhariya, Kunraghat, Singhariya, Rapti Nagar Phase-4, Gorakhpur, Uttar Pradesh, 273010, India",K_J6283_Z1_W4,K_J6283,K_C4862_2_Z1_W4,K_C4862,GUFEW078
472,4,R.S.M. SR. Secondary School Opposite MMM University Of Technology Gorakhpur,3,1,1,26.72828,83.42995,77.4888,"MahaDev Jharkhandi, Mahadevapuram Colony, Kunraghat, Gorakhpur, Uttar Pradesh, 273010, India",K_J6460_Z1_W4,K_J6460,K_C5835_5_Z1_W4,K_C5835,GUFEW078
473,1,KidZee Divyanagar Vistar,3,1,1,26.72677,83.42834,77.4412,"Opposite M.M.M.T.U, Divya Nagar Colony, Mahadevapuram Colony, Khorabar, Gorakhpur, Uttar Pradesh, 273010, India",K_J6460_Z1_W4,K_J6460,K_C5835_5_Z1_W4,K_C5835,GUFEW078
474,4,Central Hindu School,3,1,1,26.72398,83.43363,77.8092,"Near M.M.M Engineering College, Divya Nagar Colony, Mahadevapuram Colony, Kunraghat, Gorakhpur, Uttar Pradesh, 273010, India",K_J6456_Z1_W4,K_J6456,K_C5153_7_Z1_W4,K_C5153,GUFEW008
475,1,Sanskriti Public School,3,1,1,26.71715,83.42646,78.8289,"Divya Nagar, Mahadevapuram Colony, Khorabar, Near Ranidiha Chowraha, Mahadevapuram Colony, Rapti Nagar Phase-4, Gorakhpur, Uttar Pradesh, 273010, India",K_J6477_Z1_W3,K_J6477,K_C5904_Z1_W1,K_C5904,GUFEW008
476,3,Bagicha Academy,3,1,1,26.7161,83.43332,77.0066,"Khorabar, Gorakhpur, Uttar Pradesh, 273010, India",K_J6474_Z1_W3,K_J6474,K_C5901_Z1_W3,K_C5901,GUFEW008
477,1,Don Bosco Senior Sec. School,3,1,1,26.72881,83.42405,78.2118,"Deoria Rd, Opposite Madan Mohan Malviya Engg. College, Mahadevapuram Colony, Kunraghat, Gorakhpur, Uttar Pradesh, 273010, India",K_J6300_Z1_W4,K_J6300,K_C5843_1_Z1_W4,K_C5843,GUFEW078
478,1,ABC Public School Senior Wing,3,1,1,26.72394,83.4311,77.7369,"Divya Nagar, Singhariya, Awas Vikas Colony, Khorabar, Gorakhpur, Uttar Pradesh, 273010, India",K_J6468_Z1_W4,K_J6468,K_C5899_Z1_W4,K_C5899,GUFEW008
479,1,Govt. Primary School Bhairopur,3,1,1,26.72322,83.4242,77.1018,"Bhairopur, Just, Beside Kali Mandir, Mahadevapuram Colony, Kunraghat, Gorakhpur, Uttar Pradesh, 273010, India",K_J6452_Z1_W1,K_J6452,K_C5893_Z1_W1,K_C5893,GUFEW008
480,7,Zenith Convent School,3,1,1,26.75383,83.43946,78.5635,"Unnamed Road, Sainik Vihar, Nanda Nagar, Gorakhpur, Uttar Pradesh, 273008, India",K_J216_Z1_W7,K_J216,K_C654_4_Z1_W7,K_C654,SUFEW050
481,7,"Adarsh Jr High School, Sainik Kunj, Nandanagar, Gorakhpur, Uttar",3,1,1,26.75067,83.43471,77.8849,"Sainik Kunj, Nanda Nagar, Gorakhpur, Uttar Pradesh, 273008, India",K_J216_Z1_W7,K_J216,K_C654_4_Z1_W7,K_C654,SUFEW050
482,7,S.B.Academy,3,1,1,26.75054,83.43298,78.6127,"43-B, Nanda Nagar, Darghiya, Nanda Nagar, Gorakhpur, Uttar Pradesh, 273008, India",K_J216_Z1_W7,K_J216,K_C654_4_Z1_W7,K_C654,SUFEW050
483,7,HP Defence Academy Nanda Nadar,3,1,1,26.75167,83.43707,78.0753,"Sainik Kunj, Nanda Nagar, Gorakhpur, Uttar Pradesh, 273008, India",K_J216_Z1_W7,K_J216,K_C654_4_Z1_W7,K_C654,SUFEW050
484,7,H P Defence Academy,3,1,1,26.7514,83.43731,78.4655,"Near Sanatan Dharma Mandir, Sanik Kunj, Sainik Kunj, Nanda Nagar, Gorakhpur, Uttar Pradesh, 273008, India",K_J216_Z1_W7,K_J216,K_C654_4_Z1_W7,K_C654,SUFEW050
485,25,Surya School,3,1,1,26.73923,83.41766,76.6658,"MahaDev Jharkhandi, Awas Vikas Colony, Kunraghat, Gorakhpur, Uttar Pradesh, 273008, India",K_J6368_Z1_W25,K_J6368,K_C5860_Z1_W25,K_C5860,SUFEW023
486,25,Udaya Public School,3,1,1,26.73748,83.41792,75.25,"Jharkhandi, MahaDev Jharkhandi, Awas Vikas Colony, Kunraghat, Gorakhpur, Uttar Pradesh, 273008, India",K_J6361_Z1_W25,K_J6361,K_C4793_Z1_W25,K_C4793,SUFEW023
487,25,Naveen Saraswati Shishu Mandir School,3,1,1,26.74132,83.41846,77.0462,"Near Pollution Control Board, Avas Vikas Colony, MahaDev Jharkhandi, Awas Vikas Colony, Kunraghat, Gorakhpur, Uttar Pradesh, 273008, India",K_J6275_Z1_W25,K_J6275,K_C4793_3_Z1_W25,K_C4793,SUFEW023
488,25,Army Public School Kunraghat,3,1,1,26.74834,83.42225,77.1633,"Near GRD Kunraghat, Kunraghat, Gorakhpur, Uttar Pradesh, 273008, India",K_J5295_Z1_W25,K_J5295,K_C1664_3_Z1_W7,K_C1664,SUFEW023
489,25,Army Public School,3,1,1,26.74831,83.42213,77.3482,"Near AIIMS, Kunraghat, Gorakhpur, Uttar Pradesh, 273008, India",K_J6339_Z1_W25,K_J6339,K_C1664_2_Z1_W7,K_C1664,SUFEW023
490,18,Nina Thapa Inter College,3,1,1,26.75657,83.42335,76.8622,"Nanda Nagar, Gorakhpur, Uttar Pradesh, 273008, India",M5_J719_Z1_W18,M5_J719,C197_Z1_W18,C197_Z1,SUFEW050
491,18,JC International Public School,3,1,1,26.75918,83.4152,76.2432,"Gayatri Nagar, Kunraghat, Gorakhpur, Uttar Pradesh, 273014, India",M5_J719_Z1_W18,M5_J719,C196_Z1_W18,C196_Z1,SUFEW022
492,18,Kendriya Vidyalaya No.1 Air Force Gorakhpur,3,1,1,26.76049,83.4259,78.0178,"Air Force Colony, Nanda Nagar, Gorakhpur, Uttar Pradesh, 273014, India",M5_J719_Z1_W18,M5_J719,C196_Z1_W18,C196_Z1,SUFEW050
493,18,Little Wonder School,3,1,1,26.76167,83.41445,77.7261,"Gayatri Mandir Rd, Near Gayatri Mandir, Bichhiya Railway Colony, Gorakhpur, Uttar Pradesh, 273014, India",M5_J448_Z1_W23,M5_J448,C196_Z1_W18,C196_Z1,SUFEW022
494,18,Army Public School,3,1,1,26.75581,83.41814,75.1448,"Unnamed Road, Nanda Nagar, Gorakhpur, Uttar Pradesh, 273008, India",M5_J719_Z1_W18,M5_J719,C197_Z1_W18,C197_Z1,SUFEW022
495,22,Onkar Shiksha Niketan,3,1,1,26.7627,83.39967,76.5682,"Bichhiya Railway Colony, Gorakhpur, Uttar Pradesh, 273014, India",J4_Z1_W22,J4_Z1,C89_1_Z1_W45,C89_1,SUFEW022
496,22,Divine Public School,3,1,1,26.76201,83.39808,74.6831,"P A, C Camp, Bichhiya Railway Colony, Gorakhpur, Uttar Pradesh, 273014, India",M5_J385_Z1_W22,M5_J385,C89_1_Z1_W45,C89_1,SUFEW022
497,22,"Nehru Inter College, Bichia Railway Colony",3,1,1,26.75923,83.39816,75.6153,"Bichhiya Railway Colony, Gorakhpur, Uttar Pradesh, 273012, India",J5037_Z1_W22,J5037_Z1,C4540_Z1_W45,C4540_Z1,SUFEW022
498,23,New Lotus Public School,3,1,1,26.75868,83.40562,76.8716,"Sarvodaya Nagar Road, Jangal Tulsiram, Hanuman Mandir Rd, Bichhiya Railway Colony, Gorakhpur, Uttar Pradesh, 273014, India",J368_Z1_W23,J368_Z1,C93_1_Z1_W23,C93_1,SUFEW022
499,23,Nidhi Ideal School,3,1,1,26.75901,83.40999,73.0137,"Jungle Tulsi Ram, Bichhiya Railway Colony, Gorakhpur, Uttar Pradesh, 273014, India",M5_J448_Z1_W23,M5_J448,C196_Z1_W18,C196_Z1,SUFEW022
500,67,Aryans Public School,3,1,1,26.75097,83.40211,77.3306,"Shivalya, Shakti Nagar Colony, Mohaddipur, Gorakhpur, Uttar Pradesh, 273009, India",A_J5434_Z1_W67,A_J5434,A_C4948_Z1_W67,A_C4948,SUFEW022
501,67,Marwar Business School,3,1,1,26.74962,83.39777,77.31,"Mohaddipur, Gorakhpur, Uttar Pradesh, 273009, India",A_J376_Z1_W67,A_J376,A_C201_2_Z3_W72,A_C201,SUFEW022
502,67,Signal And Telecom Training Center,3,1,1,26.75642,83.39965,77.7559,"Mohaddipur FlyOver, Charfatak, Mohaddipur, Gorakhpur, Uttar Pradesh, 273012, India",A_J2177_Z1_W67,A_J2177,A_C4834_3_Z1_W67,A_C4834,SUFEW022
503,67,Happy School,3,1,1,26.74879,83.40421,78.0204,"Mohaddipur, Gorakhpur, Uttar Pradesh, 273009, India",A_J5240_Z1_W67,A_J5240,A_C4786_Z1_W67,A_C4786,SUFEW022
504,45,N.E. Railway Senior Secondary School,3,1,1,26.76099,83.38852,77.5337,"Railway Stadium Colony, Gorakhpur, Uttar Pradesh, 273012, India",J5026_Z1_W45,J5026_Z1,C4529_Z1_W45,C4529_Z1,GUFEW080
505,29,Himalayan Public School,3,5,1,26.76856,83.39318,75.4503,"Maitripuram, Gorakhpur, Uttar Pradesh, 273006, India",M5_J304_Z5_W29,M5_J304,C86_2_Z1_W22,C86_2,SUFEW021
506,45,Maharajganj,3,1,1,26.76473,83.39158,77.8605,"Railway Stadium Colony, Gorakhpur, Uttar Pradesh, 273012, India",J5130_Z1_W45,J5130_Z1,C3065_3_Z1_W45,C3065_3,SUFEW021
507,22,E.M.P.S. P.A.C. Bichhiya Nagar Kshetra Gorakhpur,3,1,1,26.76657,83.4036,77.4869,"Taadi Khana, Adarsh Nagar, Bichhiya Railway Colony, Gorakhpur, Uttar Pradesh, 273014, India",M5_J321_Z1_W22,M5_J321,C194_Z1_W23,C194_Z1,SUFEW022
508,19,Gateway Academy | Hybrid School,3,1,1,26.72479,83.39493,73.2496,"Nauka Vihar Rd, Kajakpur, Lake View Colony, Taramandal, Gorakhpur, Uttar Pradesh, 273010, India",T_J4589_Z1_W19,T_J4589,T_C1187_9_Z1_W19,T_C1187,SUFEW019
509,19,Little Flower Polytechnic Gorakhpur Jangal Sikari,3,1,1,26.72661,83.39688,72.078,"Little Flower Polytechnic, Ramghar Tal, Gorakhpur, Uttar Pradesh, 273010, India",T_J4589_Z1_W19,T_J4589,T_C1187_9_Z1_W19,T_C1187,SUFEW019
510,19,Central Workshop MMMUT,3,1,1,26.73154,83.39493,72.078,"Madan Mohan Malaviya University Of Technology, Ramghar Tal, Gorakhpur, Uttar Pradesh, 273010, India",T_J4589_Z1_W19,T_J4589,T_C1187_9_Z1_W19,T_C1187,GUFEW012
